city,country,is_capital,population,lat,lon
Кейптаун,Южно-Африканская Республика,1,433688,-33.925,18.425
Кордова,Испания,0,325916,37.883333333,-4.766666666
Балтимор,Соединённые Штаты Америки,0,622104,39.286388888,-76.615
Хантингтон-Бич,Соединённые Штаты Америки,0,189992,33.692777777,-117.999722222
Портленд,Соединённые Штаты Америки,0,583776,45.516666666,-122.666666666
Индианаполис,Соединённые Штаты Америки,0,853173,39.767777777,-86.158055555
Новара,Италия,0,104284,45.45,8.616666666
Брешиа,Италия,0,197008,45.538888888,10.220280555
Монца,Италия,0,122728,45.584722222,9.273611111
Больцано,Италия,0,106951,46.5,11.35
Виченца,Италия,0,112408,45.55,11.55
Ливорно,Италия,0,159020,43.55,10.316666666
Анталья,Турция,0,1068099,36.9,30.683333333
Ковентри,Великобритания,0,362690,52.416666666,-1.516666666
Сиань,Китайская Народная Республика,0,5740000,34.266666666,108.9
Сиань,Китайская Народная Республика,0,5740000,34.25833,108.92861
Махачкала,Россия,0,592976,42.983333333,47.483333333
Грозный,Россия,0,291687,43.316666666,45.7
Ставрополь,Россия,0,433577,45.05,41.983333333
Владикавказ,Россия,0,306978,43.016666666,44.65
Нальчик,Россия,0,265162,43.483333333,43.616666666
Черкесск,Россия,0,123128,44.222222222,42.0575
Саратов,Россия,0,843460,51.533333333,46.0
Оренбург,Россия,0,564443,51.766666666,55.1
Саранск,Россия,0,314789,54.183333333,45.183333333
Киров,Россия,0,501468,58.6,49.65
Ижевск,Россия,0,646277,56.85,53.216666666
Йошкар-Ола,Россия,0,266675,56.632777777,47.895833333
Чебоксары,Россия,0,489498,56.133333333,47.25
Пенза,Россия,0,523726,53.2,45.0
Ульяновск,Россия,0,624518,54.316666666,48.366666666
Тюмень,Россия,0,744554,57.15,65.533333333
Барнаул,Россия,0,633301,53.356666666,83.787222222
Кызыл,Россия,0,116015,51.716666666,94.45
Кемерово,Россия,0,556920,55.333333333,86.066666666
Иркутск,Россия,0,623736,52.283333333,104.3
Якутск,Россия,0,307911,62.027222222,129.731944444
Улан-Удэ,Россия,0,431922,51.833333333,107.616666666
Благовещенск,Россия,0,224419,50.257777777,127.536388888
Варна,Болгария,0,366762,43.207777777,27.916944444
Бургас,Болгария,0,206371,42.5,27.466666666
Кейптаун,Южно-Африканская Республика,0,433688,-33.925,18.425
Дурбан,Южно-Африканская Республика,0,595061,-29.858333333,31.025
Дурбан,Южно-Африканская Республика,0,595061,-29.858333333,31.025
Кейптаун,Южно-Африканская Республика,0,433688,-33.925,18.425
Дурбан,Южно-Африканская Республика,0,595061,-29.858333333,31.025
Бухара,Узбекистан,0,272500,39.774722222,64.428611111
Аделаида,Австралия,0,1300000,-34.933333333,138.583333333
Лалитпур,Непал,0,220802,27.6833,85.3333
Лалитпур,Непал,0,220802,27.7,85.35
Мекка,Саудовская Аравия,0,1675368,21.4225,39.826111111
Мары,Туркмения,0,101000,37.6,61.833333333
Анкара,Турция,1,5270575,39.866666666,32.866666666
Аккра,Гана,1,2291352,5.6037,-0.187
Джакарта,Индонезия,1,9769000,-6.166666666,106.8
Манама,Бахрейн,1,157474,26.216666666,50.583055555
Белград,Сербия,1,1233796,44.816666666,20.466666666
Нджамена,Чад,1,1092066,12.116388888,15.072222222
Тегусигальпа,Гондурас,1,1126534,14.094166666,-87.206666666
Тегеран,Иран,1,8846782,35.7,51.416666666
Панама,Панама,1,880691,9.0,-79.5
Амман,Иордания,1,4995000,31.95,35.933333333
Манагуа,Никарагуа,1,1028808,12.15,-86.266666666
Дамаск,Сирия,1,1754000,33.513055555,36.291944444
Банги,Центральноафриканская Республика,1,734350,4.361388888,18.555277777
Ломе,Того,1,837437,6.131944444,1.222777777
Лусака,Замбия,1,2467467,-15.416666666,28.283333333
Хараре,Зимбабве,1,1606000,-17.829166666,31.052222222
Бужумбура,Бурунди,1,658859,-3.3825,29.361111111
Морони,Коморы,1,111329,-11.703611111,43.253611111
Браззавиль,Республика Конго,1,1827000,-4.266666666,15.283333333
Джибути,Джибути,1,623891,11.595,43.148055555
Малабо,Экваториальная Гвинея,1,187302,3.752407,8.775265
Асмэра,Эритрея,1,649000,15.333333333,38.916666666
Либревиль,Габон,1,797003,0.3901,9.4544
Конакри,Гвинея,1,1667864,9.509166666,-13.712222222
Бисау,Гвинея-Бисау,1,395954,11.859166666,-15.595555555
Яунде,Камерун,1,2440462,3.857777777,11.518055555
Масеру,Лесото,1,227880,-29.322222222,27.487777777
Монровия,Либерия,1,1021762,6.310555555,-10.804722222
Триполи,Ливия,1,1126000,32.9,13.183333333
Лилонгве,Малави,1,781538,-13.983333333,33.783333333
Нуакшот,Мавритания,1,958399,18.078333333,-15.974444444
Порт-Луи,Маврикий,1,148001,-20.166666666,57.5
Рабат,Марокко,1,577827,34.025277777,-6.836111111
Мапуту,Мозамбик,1,1766184,-25.915277777,32.576388888
Ниамей,Нигер,1,1026848,13.508611111,2.111111111
Кампала,Уганда,1,1659600,0.313611111,32.581111111
Фритаун,Сьерра-Леоне,1,951000,8.483333333,-13.233055555
Сиэтл,Соединённые Штаты Америки,0,608660,47.6,-122.316666666
Льеж,Бельгия,0,197885,50.64528,5.57568
Тренто,Италия,0,117185,46.066666666,11.116666666
Анкона,Италия,0,100721,43.616666666,13.516666666
Перуджа,Италия,0,166676,43.1121,12.3888
Бари,Италия,0,325183,41.125277777,16.866666666
Глазго,Великобритания,0,598830,55.87,-4.27
Озаску,Бразилия,0,694844,-23.532777777,-46.791944444
Куритиба,Бразилия,0,1879355,-25.429722222,-49.271944444
Курск,Россия,0,449063,51.716666666,36.183333333
Белгород,Россия,0,391135,50.6,36.6
Воронеж,Россия,0,1039801,51.671666666,39.210555555
Липецк,Россия,0,510439,52.616666666,39.6
Тамбов,Россия,0,290365,52.716666666,41.433333333
Краснодар,Россия,0,881476,45.033333333,38.983333333
Майкоп,Россия,0,143343,44.6,40.083333333
Астрахань,Россия,0,532504,46.333333333,48.016666666
Элиста,Россия,0,103899,46.316666666,44.266666666
Хабаровск,Россия,0,616242,48.483333333,135.066666666
Трир,Германия,0,110111,49.756666666,6.641388888
Йена,Германия,0,108207,50.927222222,11.586388888
Суракарта,Индонезия,0,552118,-7.566666666,110.816666666
Кокимбо,Чили,0,200117,-29.95,-71.333333333
Мельбурн,Австралия,0,4529500,-37.820555555,144.961388888
Перт,Австралия,0,2039200,-31.952222222,115.858888888
Сурат,Индия,0,5935000,21.17,72.83
Силигури,Индия,0,513264,27.2,88.683333333
Баркисимето,Венесуэла,0,1995770,10.067777777,-69.346694444
Аруша,Танзания,0,416442,-3.366666666,36.683333333
Баку,Азербайджан,1,2181800,40.366655555,49.835183333
Дили,Восточный Тимор,1,222323,-8.558611111,125.573611111
Джорджтаун,Гайана,1,235017,6.783333333,-58.166666666
Бишкек,Киргизия,1,965900,42.866666666,74.566666666
Вьентьян,Лаос,1,760000,17.966666666,102.6
Вьентьян,Лаос,1,795000,17.966666666,102.6
Мале,Мальдивы,1,103693,4.166666666,73.5
Душанбе,Таджикистан,1,780000,38.573055555,68.786388888
Сеул,Республика Корея,1,9857426,37.583333333,127.0
Тхимпху,Бутан,1,104000,27.483333333,89.633333333
Саскатун,Канада,0,246376,52.133333333,-106.683333333
Вальядолид,Испания,0,299715,41.651980555,-4.728561111
Бильбао,Испания,0,345110,43.262222222,-2.953333333
Севилья,Испания,0,689434,37.383333333,-5.983333333
Виго,Испания,0,292986,42.233333333,-8.716666666
Ла-Корунья,Испания,0,244099,43.366666666,-8.383333333
Гранада,Испания,0,232770,37.178055555,-3.600833333
Валенсия,Испания,0,787808,39.466666666,-0.375
Пальма,Испания,0,434516,39.566666666,2.649722222
Малага,Испания,0,569002,36.716666666,-4.416666666
Бургос,Испания,0,175623,42.340833333,-3.699722222
Памплона,Испания,0,197138,42.816666666,-1.65
Сан-Себастьян,Испания,0,186370,43.32,-1.98
Альмерия,Испания,0,195389,36.833333333,-2.45
Эльче,Испания,0,228675,38.266944444,-0.698333333
Аликанте,Испания,0,329988,38.345277777,-0.483055555
Лас-Пальмас-де-Гран-Канария,Испания,0,377650,28.127222222,-15.431388888
Мурсия,Испания,0,443243,37.986111111,-1.130277777
Сантандер,Испания,0,171951,43.466666666,-3.8
Уэльва,Испания,0,145115,37.25,-6.95
Сабадель,Испания,0,209931,41.548333333,2.1075
Хихон,Испания,0,272365,43.533333333,-5.7
Тыхы,Польша,0,129322,50.166666666,19.0
Реджо-ди-Калабрия,Италия,0,182703,38.114438888,15.65
Терни,Италия,0,111401,42.566666666,12.65
Винтертур,Швейцария,0,109775,47.4992,8.72671
Харлем,Нидерланды,0,159134,52.380277777,4.640555555
Канкун,Мексика,0,628306,21.160555555,-86.8475
Белфаст,Великобритания,0,336830,54.596666666,-5.938333333
Гонконг,Китайская Народная Республика,0,7336585,22.278333333,114.158611111
Шанхай,Китайская Народная Республика,0,23390000,31.166666666,121.466666666
Ухань,Китайская Народная Республика,0,7895000,30.58333,114.26667
Ухань,Китайская Народная Республика,0,7895000,30.5725,114.279167
Рио-де-Жанейро,Бразилия,0,6476631,-22.908333333,-43.196388888
Севастополь,Россия,0,428753,44.6,33.533333333
Южно-Сахалинск,Россия,0,194882,46.95,142.733333333
Петропавловск-Камчатский,Россия,0,180454,53.016666666,158.65
Луцк,Украина,0,217082,50.747777777,25.324444444
Острава,Чехия,0,290450,49.835555555,18.2925
Сунгайпенух,Индонезия,0,101325,-2.063611111,101.396111111
Семаранг,Индонезия,0,1621384,-6.966666666,110.416666666
Маланг,Индонезия,0,780000,-7.98,112.62
Сурабая,Индонезия,0,4975000,-7.233333333,112.733333333
Дарвин,Австралия,0,146245,-12.466666666,130.833333333
Сиемреап,Камбоджа,0,147866,13.362222222,103.859722222
Ироду,Индия,0,151184,11.35,77.733333333
Салем,Индия,0,693236,11.65,78.166666666
Майсур,Индия,0,887446,12.303055555,76.643333333
Вадодара,Индия,0,1670806,22.3,73.2
Гандинагар,Индия,0,195891,23.22,72.68
Касабланка,Марокко,0,4370000,33.599166666,-7.62
Лагос,Нигерия,0,21324000,6.45,3.4
Токио,Япония,1,13784212,35.68,139.77
Вашингтон,Соединённые Штаты Америки,1,658893,38.895,-77.036666666
Варшава,Польша,1,1753977,52.216666666,21.033333333
Берн,Швейцария,1,141833,46.950833333,7.438611111
Афины,Греция,1,664046,37.979444444,23.716111111
Амстердам,Нидерланды,1,825080,52.383333333,4.9
Мехико,Мексика,1,8918653,19.419444444,-99.145555555
Лондон,Великобритания,1,8787892,51.507222222,-0.1275
Пекин,Китайская Народная Республика,1,21710000,39.905,116.391388888
Москва,Россия,1,12500123,55.755833333,37.617777777
Берлин,Германия,1,3574830,52.516666666,13.383333333
Скопье,Республика Македония,1,506926,41.983333333,21.433333333
Тбилиси,Грузия,1,1118035,41.716666666,44.783333333
Астана,Казахстан,1,880191,51.183333333,71.4
Ташкент,Узбекистан,1,2424100,41.3,69.266666666
Сингапур,Сингапур,1,5888926,1.3,103.8
Буэнос-Айрес,Аргентина,1,2890151,-34.599722222,-58.381944444
Багдад,Ирак,1,6960000,33.35,44.416666666
Иерусалим,Израиль,1,865721,31.783333333,35.216666666
Абу-Даби,Объединённые Арабские Эмираты,1,1000000,24.478055555,54.368611111
Дакка,Бангладеш,1,8906039,23.7,90.366666666
Торонто,Канада,0,2731571,43.7,-79.4
Нью-Йорк,Соединённые Штаты Америки,0,8537673,40.67,-73.94
Сан-Франциско,Соединённые Штаты Америки,0,805235,37.766667,-122.433333
Лос-Анджелес,Соединённые Штаты Америки,0,3976322,34.05,-118.25
Алегзандрия,Соединённые Штаты Америки,0,148892,38.804722222,-77.047222222
Сан-Антонио,Соединённые Штаты Америки,0,1436697,29.428611111,-98.493333333
Чикаго,Соединённые Штаты Америки,0,2722389,41.9,-87.65
Гент,Бельгия,0,230951,51.05,3.716666666
Гент,Бельгия,0,257029,51.05,3.716666666
Познань,Польша,0,544612,52.4,16.916666666
Гдыня,Польша,0,247672,54.5,18.533333333
Щецин,Польша,0,407047,53.424722222,14.555277777
Лодзь,Польша,0,715360,51.759494444,19.458511111
Катовице,Польша,0,297197,50.25,19.0
Катовице,Польша,0,297197,50.25841,19.02754
Жешув,Польша,0,182548,50.05,22.0
Белосток,Польша,0,295624,53.116666666,23.166666666
Модена,Италия,0,184727,44.64582,10.92572
Милан,Италия,0,1351562,45.464161,9.190336
Турин,Италия,0,889600,45.066666666,7.7
Триест,Италия,0,204234,45.636111111,13.804166666
Падуя,Италия,0,211560,45.406388888,11.877777777
Бергамо,Италия,0,119806,45.695,9.67
Венеция,Италия,0,261905,45.439722222,12.331944444
Салерно,Италия,0,135066,40.680555555,14.759722222
Генуя,Италия,0,583601,44.407186111,8.933983333
Женева,Швейцария,0,198899,46.2,6.15
Цюрих,Швейцария,0,415682,47.378611111,8.54
Базель,Швейцария,0,175940,47.550555555,7.591111111
Лозанна,Швейцария,0,144426,46.533333333,6.633333333
Стамбул,Турция,0,14657434,41.01,28.960277777
Гронинген,Нидерланды,0,200952,53.216666666,6.55
Кембридж,Великобритания,0,123867,52.208055555,0.1225
Сан-Паулу,Бразилия,0,12106920,-23.550394444,-46.633947222
Абакан,Россия,0,181709,53.716666666,91.416666666
Новосибирск,Россия,0,1602915,55.033333333,82.916666666
Екатеринбург,Россия,0,1455904,56.833333333,60.583333333
Нижний Новгород,Россия,0,1264075,56.326944444,44.0075
Самара,Россия,0,1169719,53.183333333,50.116666666
Омск,Россия,0,1178391,54.966666666,73.383333333
Казань,Россия,0,1231878,55.790833333,49.114444444
Челябинск,Россия,0,1198858,55.15,61.4
Ростов-на-Дону,Россия,0,1125299,47.233333333,39.716666666
Уфа,Россия,0,1130000,54.733333333,55.966666666
Пермь,Россия,0,1048005,58.013888888,56.248888888
Красноярск,Россия,0,1066934,56.016666666,92.866666666
Владивосток,Россия,0,606589,43.116666666,131.9
Томск,Россия,0,572740,56.488611111,84.952222222
Тольятти,Россия,0,710567,53.516666666,49.416666666
Кёльн,Германия,0,1075935,50.942222222,6.957777777
Хайльбронн,Германия,0,123771,49.15,9.216666666
Ахен,Германия,0,244951,50.774167,6.0825
Штутгарт,Германия,0,628032,48.776111111,9.1775
Карлсруэ,Германия,0,309999,49.016666666,8.4
Гамбург,Германия,0,1810438,53.55,10.0
Дортмунд,Германия,0,585813,51.513888888,7.465277777
Марибор,Словения,0,112325,46.55,15.633333333
Марибор,Словения,0,112325,46.55472,15.64667
Пловдив,Болгария,0,333206,42.143333333,24.748888888
Мумбаи,Индия,0,12442373,18.966666666,72.833333333
Нагпур,Индия,0,2405665,21.153888888,79.083055555
Дубай,Объединённые Арабские Эмираты,0,2502715,25.269722222,55.309444444
Кагосима,Япония,0,596319,31.596666666,130.557222222
Херес-де-ла-Фронтера,Испания,0,212915,36.7,-6.116666666
Террасса,Испания,0,216428,41.561111111,2.008055555
Витория-Гастейз,Испания,0,246976,42.846666666,-2.673055555
Логроньо,Испания,0,150979,42.47,-2.445555555
Санта-Крус-де-Тенерифе,Испания,0,203692,28.466666666,-16.25
Таррагона,Испания,0,131507,41.11868,1.24532
Льейда,Испания,0,137327,41.616666666,0.633333333
Кастельон-де-ла-Плана,Испания,0,169498,39.97,-0.05
Альбасете,Испания,0,172816,38.995555555,-1.855833333
Бадалона,Испания,0,215848,41.433333333,2.233333333
Бадахос,Испания,0,150543,38.88,-6.97
Хаэн,Испания,0,113522,37.769722222,-3.788888888
Кадис,Испания,0,118048,36.516666666,-6.283333333
Саламанка,Испания,0,144436,40.965,-5.663888888
Леон,Испания,0,125317,42.598888888,-5.566944444
Детройт,Соединённые Штаты Америки,0,680250,42.331666666,-83.0475
Брюгге,Бельгия,0,118053,51.209444444,3.22
Пьяченца,Италия,0,102355,45.05,9.7
Реджо-Эмилия,Италия,0,170996,44.7,10.633333333
Феррара,Италия,0,132009,44.835297,11.619865
Равенна,Италия,0,159162,44.417777777,12.199444444
Форли,Италия,0,117859,44.2225,12.040833333
Римини,Италия,0,148908,44.0595,12.5685
Прато,Италия,0,191749,43.880813888,11.096561111
Латина,Италия,0,126181,41.467597222,12.9037
Фоджа,Италия,0,151975,41.466666666,15.566666666
Андрия,Италия,0,100365,41.231666666,16.308333333
Таранто,Италия,0,200385,40.418055555,17.240833333
Сассари,Италия,0,127745,40.726666666,8.559166666
Мессина,Италия,0,236962,38.183333333,15.55
Сиракуза,Италия,0,122086,37.083333333,15.283333333
Шэньчжэнь,Китайская Народная Республика,0,11908400,22.535,114.054
Курган,Россия,0,322042,55.440833333,65.341111111
Новороссийск,Россия,0,270774,44.716666666,37.766666666
Армавир,Россия,0,190871,45.0,41.116666666
Матарам,Индонезия,0,408900,-8.583333333,116.116666666
Патна,Индия,0,1683200,25.61,85.141388888
Тебриз,Иран,0,1494998,38.083333333,46.283333333
Хантсвилл,Соединённые Штаты Америки,0,180105,34.713611111,-86.586111111
Мобил,Соединённые Штаты Америки,0,195111,30.727669444,-88.052672222
Саутгемптон,Великобритания,0,239400,50.906944,-1.404722
Констанца,Румыния,0,283872,44.173333333,28.638333333
Крайстчерч,Новая Зеландия,0,362000,-43.53,172.620277777
Оттава,Канада,1,934243,45.416666666,-75.7
Будапешт,Венгрия,1,1752704,47.498333333,19.040833333
Хельсинки,Финляндия,1,620982,60.173333333,24.948611111
Стокгольм,Швеция,1,935619,59.329444444,18.068611111
Копенгаген,Дания,1,602481,55.676111111,12.568888888
Вена,Австрия,1,1840573,48.20833,16.373064
Минск,Белоруссия,1,1974800,53.902246,27.561837
Братислава,Словакия,1,417389,48.144722222,17.112777777
Канберра,Австралия,1,381488,-35.302777777,149.141666666
Пномпень,Камбоджа,1,1501725,11.55,104.916666666
Каракас,Венесуэла,1,1943901,10.5,-66.933333333
Парамарибо,Суринам,1,240000,5.866666666,-55.166666666
Асунсьон,Парагвай,1,524190,-25.3,-57.633333333
Кито,Эквадор,1,2644145,-0.218611111,-78.509722222
Кито,Эквадор,1,2671191,-0.218611111,-78.509722222
Богота,Колумбия,1,8181047,4.598888888,-74.080833333
Гватемала,Гватемала,1,2110100,14.622777777,-90.531388888
Нассау,Багамские Острова,1,274400,25.066666666,-77.333333333
Сан-Сальвадор,Сальвадор,1,567698,13.69,-89.19
Сан-Хосе,Коста-Рика,1,288054,9.933333333,-84.083333333
Сана,Йемен,1,2957000,15.35,44.2
Катманду,Непал,1,975453,27.716666666,85.366666666
Бангкок,Таиланд,1,5696409,13.75,100.516666666
Джуба,Южный Судан,1,372410,4.85,31.6
Могадишо,Сомали,1,2120000,2.040833333,45.3425
Хартум,Судан,1,5345000,15.60308,32.52654
Эдмонтон,Канада,0,932546,53.5,-113.5
Реджайна,Канада,0,215106,50.454722222,-104.606666666
Виннипег,Канада,0,705244,49.883333,-97.15
Галифакс,Канада,0,403131,44.647777777,-63.571388888
Вроцлав,Польша,0,634404,51.10773,17.03533
Болонья,Италия,0,388367,44.493888888,11.342777777
Катания,Италия,0,313396,37.502669444,15.087269444
Верона,Италия,0,252520,45.438158333,10.993741666
Флоренция,Италия,0,382258,43.771388888,11.254166666
Неаполь,Италия,0,972212,40.833333333,14.25
Палермо,Италия,0,674435,38.115658,13.361262
Парма,Италия,0,194417,44.801472222,10.328
Мурманск,Россия,0,298096,68.966666666,33.083333333
Калининград,Россия,0,467289,54.716666666,20.5
Архангельск,Россия,0,351488,64.55,40.533333333
Петрозаводск,Россия,0,278551,61.783333333,34.35
Вологда,Россия,0,313012,59.216666666,39.9
Сыктывкар,Россия,0,245313,61.666666666,50.816666666
Череповец,Россия,0,318856,59.133333333,37.916666666
Псков,Россия,0,209840,57.816666666,28.333333333
Сызрань,Россия,0,173260,53.166666666,48.466666666
Великий Новгород,Россия,0,222594,58.525,31.275
Тверь,Россия,0,419363,56.857827777,35.921927777
Ярославль,Россия,0,608079,57.616666666,39.85
Кострома,Россия,0,277648,57.766666666,40.933333333
Иваново,Россия,0,406933,57.0,40.983333333
Владимир,Россия,0,356168,56.133333333,40.416666666
Рязань,Россия,0,537622,54.616666666,39.716666666
Тула,Россия,0,485221,54.2,37.616666666
Брянск,Россия,0,406553,53.25,34.366666666
Калуга,Россия,0,341892,54.533333333,36.266666666
Орёл,Россия,0,318633,52.966666666,36.083333333
Киль,Германия,0,247236,54.325277777,10.140555555
Ганновер,Германия,0,532864,52.374444444,9.738611111
Дюссельдорф,Германия,0,613230,51.216666666,6.816666666
Саарбрюккен,Германия,0,179709,49.2354,6.98165
Саарбрюккен,Германия,0,179709,49.233333333,7.0
Мюнхен,Германия,0,1464301,48.137194444,11.5755
Эрфурт,Германия,0,211113,50.978055555,11.029166666
Дрезден,Германия,0,547172,51.033333333,13.733333333
Магдебург,Германия,0,238136,52.133333333,11.616666666
Эссен,Германия,0,590194,51.450833333,7.013055555
Лейпциг,Германия,0,571088,51.333333333,12.383333333
Нюрнберг,Германия,0,511628,49.452777777,11.077777777
Билефельд,Германия,0,333451,52.016666666,8.516666666
Фрайбург-им-Брайсгау,Германия,0,227590,47.994722222,7.849722222
Росток,Германия,0,207513,54.083333333,12.133333333
Вюрцбург,Германия,0,126010,49.794444444,9.929444444
Ульм,Германия,0,123953,48.4,9.983333333
Гёттинген,Германия,0,119177,51.533888888,9.935555555
Ройтлинген,Германия,0,115006,48.483333333,9.216666666
Гомель,Белоруссия,0,527172,52.441666666,30.983333333
Одесса,Украина,0,1010783,46.47747,30.73262
Одесса,Украина,0,1010783,46.485722,30.743444
Сидней,Австралия,0,4840600,-33.866666666,151.2
Коччи,Индия,0,601574,9.966666666,76.283333333
Дар-эс-Салам,Танзания,0,4715000,-6.8,39.283333333
Байуган,Филиппины,0,103202,8.7143,125.7481
Хожув,Польша,0,111536,50.3,18.95
Хожув,Польша,0,111536,50.30582,18.9742
Эльблонг,Польша,0,122568,54.166666666,19.4
Зелёна-Гура,Польша,0,138763,51.939722222,15.505
Зелёна-Гура,Польша,0,139330,51.939722222,15.505
Ачинск,Россия,0,105364,56.266666666,90.5
Балашиха,Россия,0,450771,55.8,37.95
Балаково,Россия,0,191260,52.03898,47.78392
Батайск,Россия,0,124705,47.133333333,39.75
Кишинёв,Молдавия,1,685900,47.005555555,28.8575
Подгорица,Черногория,1,187085,42.439722222,19.266111111
Пхеньян,Корейская Народно-Демократическая Республика,1,2863000,39.03,125.73
Ашхабад,Туркмения,1,126635,37.95,58.383333333
Ашхабад,Туркмения,1,169935,37.95,58.383333333
Ашхабад,Туркмения,1,253118,37.95,58.383333333
Ашхабад,Туркмения,1,312024,37.95,58.383333333
Ашхабад,Туркмения,1,401135,37.95,58.383333333
Ашхабад,Туркмения,1,540600,37.95,58.383333333
Ашхабад,Туркмения,1,909000,37.95,58.383333333
Ашхабад,Туркмения,1,1003678,37.95,58.383333333
Ванкувер,Канада,0,631486,49.25,-123.1
Касугаи,Япония,0,306936,35.25,136.966666666
Ставангер,Норвегия,0,132729,58.97,5.71
Тронхейм,Норвегия,0,190464,63.44,10.4
Шривпорт,Соединённые Штаты Америки,0,199311,32.5082078,-93.7629569
Сан-Хосе,Соединённые Штаты Америки,0,1025350,37.304166666,-121.872777777
Денвер,Соединённые Штаты Америки,0,649495,39.739166666,-104.984722222
Хьюстон,Соединённые Штаты Америки,0,2195914,29.762777777,-95.383055555
Финикс,Соединённые Штаты Америки,0,1469471,33.528333333,-112.076388888
Даллас,Соединённые Штаты Америки,0,1197816,32.7825,-96.7975
Форт-Уэрт,Соединённые Штаты Америки,0,812238,32.757222222,-97.333055555
Остин,Соединённые Штаты Америки,0,912791,30.3,-97.733333333
Эль-Пасо,Соединённые Штаты Америки,0,649133,31.790277777,-106.423333333
Мемфис,Соединённые Штаты Америки,0,646889,35.1175,-89.971111111
Колумбус,Соединённые Штаты Америки,0,787033,39.983333333,-82.983333333
Джэксонвилл,Соединённые Штаты Америки,0,880619,30.316666666,-81.65
Ларедо,Соединённые Штаты Америки,0,244731,27.506111111,-99.507222222
Окленд,Соединённые Штаты Америки,0,422856,37.8,-122.25
Арлингтон,Соединённые Штаты Америки,0,365438,32.705033,-97.122839
Провиденс,Соединённые Штаты Америки,0,178042,41.830833333,-71.415
Орора,Соединённые Штаты Америки,0,197899,41.76,-88.298611111
Нашвилл,Соединённые Штаты Америки,0,668347,36.165,-86.783888888
Солт-Лейк-Сити,Соединённые Штаты Америки,0,186440,40.75,-111.883333333
Прово,Соединённые Штаты Америки,0,116288,40.244444444,-111.660833333
Олбани,Соединённые Штаты Америки,0,100104,42.65,-73.766666666
Ньюарк,Соединённые Штаты Америки,0,281944,40.735277777,-74.185
Джерси-Сити,Соединённые Штаты Америки,0,247597,40.711388888,-74.064722222
Орхус,Дания,0,269022,56.156388888,10.209722222
Оденсе,Дания,0,176683,55.4,10.383333333
Ольборг,Дания,0,113417,57.05,9.916666666
Салоники,Греция,0,315196,40.633333333,22.95
Леуварден,Нидерланды,0,108891,53.2,5.783333333
Манчестер,Великобритания,0,520215,53.466666666,-2.233333333
Брадфорд,Великобритания,0,293277,53.794,-1.751
Бристоль,Великобритания,0,442500,51.45,-2.583333333
Эдинбург,Великобритания,0,464990,55.95,-3.198888888
Ливерпуль,Великобритания,0,466415,53.416666666,-3.0
Гуанчжоу,Китайская Народная Республика,0,13080500,23.11667,113.25
Гуанчжоу,Китайская Народная Республика,0,13080500,23.128795,113.258976
Первоуральск,Россия,0,124447,56.916666666,59.95
Подольск,Россия,0,299660,55.429722222,37.544444444
Симферополь,Россия,0,341155,44.948376,34.100039
Мытищи,Россия,0,205397,55.916666666,37.733333333
Бремен,Германия,0,565719,53.076944444,8.808888888
Бремен,Германия,0,565719,53.08891,8.79063
Борисов,Белоруссия,0,145659,54.233333333,28.5
Кошице,Словакия,0,240688,48.716666666,21.25
Тэджон,Республика Корея,0,1535445,36.351,127.385
Тэгу,Республика Корея,0,2461002,35.866666666,128.6
Инчхон,Республика Корея,0,2913024,37.463888888,126.648611111
Ликаси,Демократическая Республика Конго,0,422535,-10.983333333,26.733333333
Лондон,Канада,0,383822,42.9837,-81.2497
Сегед,Венгрия,0,161137,46.25,20.166666666
Мишкольц,Венгрия,0,157177,48.1044444,20.7897222
Оренсе,Испания,0,105636,42.336388888,-7.863333333
Саванна,Соединённые Штаты Америки,0,142772,32.050833333,-81.103888888
Шарлеруа,Бельгия,0,201761,50.416666666,4.444166666
Ольштын,Польша,0,173599,53.783333333,20.483333333
Ополе,Польша,0,127792,50.666666666,17.933333333
Кельце,Польша,0,191605,50.8725,20.631944444
Бытом,Польша,0,171515,50.347,18.923
Ченстохова,Польша,0,228179,50.8,19.116666666
Забже,Польша,0,179452,50.3,18.783333333
Антакья,Турция,0,354768,36.2,36.15
Ван,Турция,0,353419,38.501944444,43.416666666
Газиантеп,Турция,0,1556381,37.066666666,37.383333333
Алмере,Нидерланды,0,198315,52.375833333,5.225555555
Эль-Гиза,Египет,0,3021542,30.01,31.21
Монтеррей,Мексика,0,1135512,25.671388888,-100.308611111
Акапулько,Мексика,0,673479,16.8628695,-99.8870087
Лестер,Великобритания,0,464395,52.633333333,-1.133333333
Чанчунь,Китайская Народная Республика,0,7674439,43.9,125.2
Сантус,Бразилия,0,433966,-23.960833333,-46.333888888
Гояния,Бразилия,0,1393575,-16.678888888,-49.253888888
Новокузнецк,Россия,0,552445,53.75,87.116666666
Набережные Челны,Россия,0,529797,55.7,52.333333333
Магнитогорск,Россия,0,418241,53.383333333,59.033333333
Нижний Тагил,Россия,0,355693,57.916666666,59.966666666
Волжский,Россия,0,326055,48.783333333,44.766666666
Елец,Россия,0,105016,52.616666666,38.466666666
Ковров,Россия,0,138552,56.360555555,41.319722222
Бийск,Россия,0,203108,52.516666666,85.166666666
Альметьевск,Россия,0,154262,54.9,52.3
Ангарск,Россия,0,226374,52.566666666,103.916666666
Арзамас,Россия,0,104547,55.383333333,43.8
Арзамас,Россия,0,104785,55.383333333,43.8
Артём,Россия,0,106732,43.35,132.183333333
Витебск,Белоруссия,0,373880,55.183333333,30.166666666
Оломоуц,Чехия,0,100494,49.596111111,17.260277777
Тимишоара,Румыния,0,319279,45.759722222,21.23
Дуррес,Албания,0,113249,41.324166666,19.455833333
Шимла,Индия,0,269578,31.103333333,77.172222222
Шимла,Индия,0,392542,31.103333333,77.172222222
Мосул,Ирак,0,1694000,36.366666666,43.116666666
Ибб,Йемен,0,225611,13.966666666,44.166666666
Тир,Ливан,0,135204,33.266666666,35.2
Равалпинди,Пакистан,0,2098231,33.6,73.033333333
Фес,Марокко,0,1112072,34.044166666,-5.001944444
Марракеш,Марокко,0,928850,31.62947,-7.98108
Тербон,Канада,0,111575,45.7,-73.633333333
Леви,Канада,0,138769,46.8,-71.1833
Сагеней,Канада,0,145949,48.4167,-71.0667
Шербрук,Канада,0,161323,45.4,-71.9
Лаваль,Канада,0,422993,45.5833,-73.75
Гатино,Канада,0,276245,45.483333,-75.65
Аомори,Япония,0,281130,40.822222222,140.7475
Элизабет,Соединённые Штаты Америки,0,124969,40.662222222,-74.209166666
Патерсон,Соединённые Штаты Америки,0,146199,40.915555555,-74.163055555
Норт-Лас-Вегас,Соединённые Штаты Америки,0,216961,36.228611111,-115.146666666
Маниса,Турция,0,356702,38.633333333,27.416666666
Эз-Заказик,Египет,0,602840,30.566666666,31.5
Самора-де-Идальго,Мексика,0,141627,19.983333333,-102.283333333
Сапопан,Мексика,0,1332272,20.720277777,-103.391944444
Златоуст,Россия,0,167978,55.166666666,59.666666666
Люберцы,Россия,0,197705,55.681388888,37.893888888
Камышин,Россия,0,111775,50.083333333,45.4
Каспийск,Россия,0,113348,42.883333333,47.633333333
Брест,Белоруссия,0,335645,52.133333333,23.666666666
Либерец,Чехия,0,103979,50.7787225,14.9742866
Захедан,Иран,0,560725,29.483333333,60.866666666
Зенджан,Иран,0,433475,36.666666666,48.483333333
Тандер-Бей,Канада,0,108359,48.3822,-89.2461
Барри,Канада,0,141434,44.39,-79.686
Берлингтон,Канада,0,175779,43.325,-79.8
Берген,Норвегия,0,278556,60.3925,5.323333333
Джэксон,Соединённые Штаты Америки,0,173514,32.298888888,-90.184722222
Батон-Руж,Соединённые Штаты Америки,0,229493,30.416666666,-91.1
Лансинг,Соединённые Штаты Америки,0,114297,42.7335,-84.5467
Линкольн,Соединённые Штаты Америки,0,280364,40.810555555,-96.680277777
Сент-Пол,Соединённые Штаты Америки,0,285068,44.944166666,-93.093611111
Монтгомери,Соединённые Штаты Америки,0,205764,32.361666666,-86.279166666
Хартфорд,Соединённые Штаты Америки,0,124893,41.763333333,-72.685
Фарго,Соединённые Штаты Америки,0,105549,46.877222222,-96.789444444
Новый Орлеан,Соединённые Штаты Америки,0,378715,29.966666666,-90.05
Лахти,Финляндия,0,118119,60.983333333,25.655555555
Краков,Польша,0,766739,50.066666666,19.95
Гёльджюк,Турция,0,156901,40.666666666,29.833333333
Роттердам,Нидерланды,0,631155,51.930833333,4.479166666
Асуан,Египет,0,252246,24.088919444,32.899730555
Асьют,Египет,0,389307,27.186944444,31.171388888
Шибин-эль-Ком,Египет,0,177112,30.55,31.0
Сьюдад-Хуарес,Мексика,0,1391180,31.739444444,-106.486944444
Чэнду,Китайская Народная Республика,0,11050000,30.663611111,104.066666666
Чэнду,Китайская Народная Республика,0,11050000,30.66667,104.06667
Сан-Луис,Бразилия,0,1073893,-2.53,-44.302777777
Евпатория,Россия,0,106158,45.2,33.358333333
Евпатория,Украина,0,106158,45.2,33.358333333
Славянск,Украина,0,113196,48.87,37.625
Славянск,Украина,0,114437,48.87,37.625
Краматорск,Украина,0,159445,48.720833333,37.555555555
Вальпараисо,Чили,0,296655,-33.045944444,-71.616361111
Кожикоде,Индия,0,431560,11.25,75.766666666
Кадапа,Индия,0,2884524,14.466666666,78.816666666
Джалгаон,Индия,0,460468,21.016666666,75.566666666
Джаландхар,Индия,0,873725,31.325555555,75.579166666
Эль-Альто,Боливия,0,827239,-16.5,-68.2
Эль-Альто,Боливия,0,827239,-16.5,-68.2
Хамадан,Иран,0,525794,34.8,48.516666666
Тель-Авив,Израиль,0,432892,32.083333333,34.8
Захле,Ливан,0,100000,33.843055555,35.897777777
Мингора,Пакистан,0,279914,34.783333333,72.366666666
Унайза,Саудовская Аравия,0,163729,26.084,43.994
Эль-Джубайль,Саудовская Аравия,0,337778,27.0,49.666666666
Чатем-Кент,Канада,0,101647,42.4,-82.183333333
Киллин,Соединённые Штаты Америки,0,138154,31.105555555,-97.726666666
Вантаа,Финляндия,0,214605,60.3,25.033333333
Гожув-Велькопольский,Польша,0,124470,52.733333333,15.25
Радом,Польша,0,219703,51.403611111,21.156666666
Сосновец,Польша,0,214488,50.3,19.166666666
Гливице,Польша,0,186347,50.283333333,18.666666666
Легница,Польша,0,101133,51.216666666,16.166666666
Тарнув,Польша,0,110956,50.0125,20.988611111
Бельско-Бяла,Польша,0,172781,49.8225,19.044444444
Домброва-Гурнича,Польша,0,122712,50.323888888,19.194722222
Руда-Слёнская,Польша,0,139412,50.25,18.85
Валбжих,Польша,0,116069,50.766666666,16.283333333
Карс,Турция,0,102001,40.606944444,43.093055555
Пуэбла-де-Сарагоса,Мексика,0,1434062,19.051388888,-98.217777777
Вулвергемптон,Великобритания,0,250970,52.584167,-2.125278
Березники,Россия,0,145115,59.416666666,56.783333333
Каменск-Уральский,Россия,0,169929,56.4,61.933333333
Миасс,Россия,0,151856,55.05,60.1
Камагуэй,Куба,0,321992,21.378611111,-77.918611111
Баямо,Куба,0,235107,20.381666666,-76.642777777
Сьего-де-Авила,Куба,0,143449,21.848055555,-78.763055555
Сантьяго-де-Куба,Куба,0,444851,20.028333333,-75.820555555
Кэсон,Корейская Народно-Демократическая Республика,0,192578,37.966666666,126.55
Нампхо,Корейская Народно-Демократическая Республика,0,310864,38.733333333,125.4
Мангалор,Индия,0,623841,12.870277777,74.880555555
Бам,Иран,0,127396,29.108333,58.358333
Мешхед,Иран,0,3001184,36.306944444,59.604166666
Мванза,Танзания,0,385810,-2.516666666,32.9
Сумбаванга,Танзания,0,147483,-7.966666666,31.616666666
Танжер,Марокко,0,974000,35.784722222,-5.8125
Матола,Мозамбик,0,675422,-25.966666666,32.466666666
Ньиредьхаза,Венгрия,0,117689,47.95,21.716666666
Кечкемет,Венгрия,0,110813,46.9074,19.6917
Лариса,Греция,0,144651,39.638493,22.413061
Аланья,Турция,0,285407,36.545,31.995
Элязыг,Турция,0,347857,38.666666666,39.216666666
Адапазары,Турция,0,274898,40.783333333,30.4
Питерборо,Великобритания,0,194000,52.583333333,-0.25
Риу-Бранку,Бразилия,0,383443,-9.978055555,-67.811666666
Кампинас,Бразилия,0,1164098,-22.900913888,-47.057294444
Карапикуиба,Бразилия,0,392294,-23.522777777,-46.835833333
Нитерой,Бразилия,0,496696,-22.883333333,-43.103611111
Нефтекамск,Россия,0,126805,56.083333333,54.25
Нефтеюганск,Россия,0,126157,61.1,72.6
Нижневартовск,Россия,0,274575,60.95,76.6
Нижнекамск,Россия,0,237250,55.633333333,51.816666666
Новокуйбышевск,Россия,0,103908,53.1,49.916666666
Новомосковск,Россия,0,125647,54.033333333,38.266666666
Новочебоксарск,Россия,0,126072,56.116666666,47.5
Новочеркасск,Россия,0,168766,47.435833333,40.098611111
Новый Уренгой,Россия,0,113254,66.084722222,76.678888888
Ногинск,Россия,0,102267,55.85,38.433333333
Норильск,Россия,0,177428,69.333333333,88.216666666
Ноябрьск,Россия,0,106879,63.201666666,75.451666666
Обнинск,Россия,0,113639,55.1,36.616666666
Одинцово,Россия,0,141493,55.673333333,37.273333333
Октябрьский,Россия,0,113929,54.483333333,53.483333333
Орехово-Зуево,Россия,0,119956,55.8,38.966666666
Кутаиси,Грузия,0,147900,42.25,42.7
Бхубанешвар,Индия,0,837737,20.264444444,85.828055555
Маракайбо,Венесуэла,0,1220000,10.633333333,-71.633333333
Керман,Иран,0,573449,30.283333333,57.066666666
Решт,Иран,0,639951,37.283333333,49.6
Киркук,Ирак,0,975000,35.466666666,44.4
Фейсалабад,Пакистан,0,2880675,31.418,73.079
Фейсалабад,Пакистан,0,3203846,31.418,73.079
Хама,Сирия,0,312994,35.133333333,36.75
Тартус,Сирия,0,115769,34.883333333,35.883333333
Газни,Афганистан,0,143379,33.55,68.416666666
Мекнес,Марокко,0,520428,33.883333333,-5.55
Китченер,Канада,0,233222,43.45,-80.483333333
Оита,Япония,0,478537,33.233333333,131.606666666
Мацуяма,Япония,0,510809,33.83916,132.76574
Мацуяма,Япония,0,510809,33.833333333,132.766666666
Коти,Япония,0,331843,33.566666666,133.533333333
Уцуномия,Япония,0,519025,36.55,139.883333333
Такамацу,Япония,0,418122,34.35,134.05
Тоттори,Япония,0,191601,35.501111111,134.235
Вакаяма,Япония,0,360000,34.233333333,135.166666666
Маэбаси,Япония,0,334299,36.383333333,139.066666666
Кофу,Япония,0,189433,35.666666666,138.566666666
Такома,Соединённые Штаты Америки,0,198397,47.241388888,-122.459444444
Балыкесир,Турция,0,1189057,39.651111111,27.884166666
Шахты,Россия,0,235492,47.7,40.233333333
Щёлково,Россия,0,125843,55.916666666,38.0
Электросталь,Россия,0,158508,55.8,38.45
Энгельс,Россия,0,225752,51.466666666,46.116666666
Солигорск,Белоруссия,0,102297,52.816666666,27.533333333
Актау,Казахстан,0,183350,43.65,51.15
Дехрадун,Индия,0,578420,30.318,78.029
Гувахати,Индия,0,957352,26.166666666,91.766666666
Вишакхапатнам,Индия,0,2035922,17.7,83.25
Вишакхапатнам,Индия,0,4288113,17.7,83.25
Виджаявада,Индия,0,874587,16.516666666,80.616666666
Джодхпур,Индия,0,1033918,26.466666666,73.033333333
Джамшедпур,Индия,0,1337131,22.8,86.183333333
Удджайн,Индия,0,515215,23.182777777,75.777222222
Насик,Индия,0,1486053,20.0,73.783333333
Фаридабад,Индия,0,1404653,28.416666666,77.3
Аурангабад,Индия,0,1371330,19.88,75.32
Биканер,Индия,0,529007,28.018055555,73.316944444
Джабалпур,Индия,0,1267564,23.166666666,79.933333333
Алигарх,Индия,0,933119,27.88,78.08
Асансол,Индия,0,563917,23.683333333,86.966666666
Кербела,Ирак,0,690100,32.616666666,44.033333333
Ришон-ле-Цион,Израиль,0,243973,31.95,34.8
Латакия,Сирия,0,700000,35.523611111,35.791666666
Балканабад,Туркмения,0,120800,39.511944444,54.365
Аба,Нигерия,0,534265,5.116666666,7.366666666
Виллемстад,Кюрасао,1,140100,12.116666666,-68.933333333
Нагано,Япония,0,372342,36.648611111,138.192777777
Фриско,Соединённые Штаты Америки,0,116989,33.1414,-96.8131
Бомонт,Соединённые Штаты Америки,0,118296,30.08,-94.126666666
Абилин,Соединённые Штаты Америки,0,117063,32.446388888,-99.745555555
Дентон,Соединённые Штаты Америки,0,113383,33.216666666,-97.133333333
Мидленд,Соединённые Штаты Америки,0,123933,32.005,-102.09917
Раунд-Рок,Соединённые Штаты Америки,0,109821,30.515,-97.6725
Уичито-Фолс,Соединённые Штаты Америки,0,104553,33.896944444,-98.515
Одесса,Соединённые Штаты Америки,0,110720,31.863333333,-102.365555555
Лафейетт,Соединённые Штаты Америки,0,120687,30.243062,-92.012649
Су-Фолс,Соединённые Штаты Америки,0,164676,43.536388888,-96.731666666
Луксор,Египет,0,202232,25.696944444,32.642222222
Норидж,Великобритания,0,195971,52.628056,1.299167
Дербент,Россия,0,123008,42.069166666,48.295833333
Братск,Россия,0,231602,56.166666666,101.616666666
Коломна,Россия,0,144125,55.083333333,38.783333333
Тирасполь,Молдавия,0,128807,46.85,29.63333333
Тирасполь,Молдавия,0,133807,46.85,29.63333333
Шкодер,Албания,0,112276,42.066666666,19.5
Баня-Лука,Босния и Герцеговина,0,199191,44.766666666,17.183333333
Гянджа,Азербайджан,0,116122,40.682777777,46.360555555
Гянджа,Азербайджан,0,189512,40.682777777,46.360555555
Гянджа,Азербайджан,0,231901,40.682777777,46.360555555
Гянджа,Азербайджан,0,278006,40.682777777,46.360555555
Гянджа,Азербайджан,0,1054962,40.682777777,46.360555555
Ниш,Сербия,0,183164,43.319166666,21.896111111
Данидин,Новая Зеландия,0,118500,-45.866666666,170.5
Сен-Марк,Республика Гаити,0,160181,19.116666666,-72.7
Нишапур,Иран,0,276089,36.206666666,58.804166666
Эрбиль,Ирак,0,852500,36.191111111,44.009444444
Аден,Йемен,0,507355,12.8,45.033333333
Мазари-Шариф,Афганистан,0,427600,36.7,67.116666666
Дуала,Камерун,0,2446945,4.05,9.7
Мисурата,Ливия,0,259056,32.377777777,15.090138888
Бриджтаун,Барбадос,1,110000,13.096111111,-59.608333333
Блумфонтейн,Южно-Африканская Республика,1,256185,-29.1,26.216666666
Порт-Морсби,Папуа-Новая Гвинея,1,364125,-9.5,147.2
Санто-Доминго,Доминиканская Республика,1,2581827,18.476388888,-69.893333333
Эль-Кувейт,Кувейт,1,637411,29.375,47.98
Коломбо,Шри-Ланка,1,752993,6.916666666,79.833333333
Калгари,Канада,0,1239220,51.05,-114.066666666
Иокогама,Япония,0,3731706,35.433333333,139.633333333
Корк,Ирландия,0,119230,51.9,-8.473055555
Альбукерке,Соединённые Штаты Америки,0,559277,35.116666666,-106.616666666
Оклахома-Сити,Соединённые Штаты Америки,0,591967,35.4823,-97.5352
Бойсе,Соединённые Штаты Америки,0,205671,43.613611111,-116.237777777
Таллахасси,Соединённые Штаты Америки,0,181376,30.438736111,-84.280633333
Кливленд,Соединённые Штаты Америки,0,396815,41.482222222,-81.669722222
Сент-Луис,Соединённые Штаты Америки,0,318416,38.616666666,-90.2
Анкоридж,Соединённые Штаты Америки,0,300950,61.218333333,-149.899166666
Бербанк,Соединённые Штаты Америки,0,103340,34.180277777,-118.328333333
Де-Мойн,Соединённые Штаты Америки,0,203433,41.590833333,-93.620833333
Норман,Соединённые Штаты Америки,0,110925,35.221666666,-97.418333333
Топика,Соединённые Штаты Америки,0,127473,39.033333333,-95.683333333
Топика,Соединённые Штаты Америки,0,127473,39.04833,-95.67804
Роли,Соединённые Штаты Америки,0,439896,35.818888888,-78.644722222
Сан-Хуан,Соединённые Штаты Америки,0,355074,18.45,-66.066666666
Канзас-Сити,Соединённые Штаты Америки,0,459787,39.05,-94.583333333
Турку,Финляндия,0,187604,60.451666666,22.27
Тампере,Финляндия,0,225118,61.498055555,23.760833333
Люблин,Польша,0,324637,51.233333333,22.566666666
Быдгощ,Польша,0,358614,53.116666666,18.0
Адана,Турция,0,1636229,37.0,35.325
Бурса,Турция,0,1562828,40.183333333,29.066666666
Бурса,Турция,0,2901396,40.183333333,29.066666666
Абердин,Великобритания,0,222793,57.15,-2.1
Лидс,Великобритания,0,766399,53.799722222,-1.549166666
Манаус,Бразилия,0,2094391,-3.1,-60.016666666
Порту-Алегри,Бразилия,0,1484941,-30.032777777,-51.23
Сочи,Россия,0,411524,43.585277777,39.720277777
Сочи,Россия,0,411524,43.60078,39.73343
Пятигорск,Россия,0,145836,44.033333,43.05
Львов,Украина,0,758400,49.83,24.014166666
Мариуполь,Украина,0,449498,47.130555555,37.563888888
Николаев,Украина,0,487996,46.966666666,32.0
Николаев,Украина,0,498748,46.966666666,32.0
Бельцы,Молдавия,0,144800,47.761666666,27.928888888
Алма-Ата,Казахстан,0,1703500,43.25,76.9
Блумфонтейн,Южно-Африканская Республика,0,256185,-29.1,26.216666666
Блумфонтейн,Южно-Африканская Республика,0,256185,-29.1,26.216666666
Брисбен,Австралия,0,2274560,-27.467777777,153.027777777
Хобарт,Австралия,0,222356,-42.883333333,147.316666666
Окленд,Новая Зеландия,0,1454300,-36.85,174.783333333
Танджавур,Индия,0,222943,10.8,79.15
Тринидад,Боливия,0,120182,-14.833333333,-64.9
Тариха,Боливия,0,135783,-21.531666666,-64.731111111
Потоси,Боливия,0,240966,-19.583333333,-65.75
Оруро,Боливия,0,264700,-17.966666666,-67.116666666
Тринидад,Боливия,0,120182,-14.833333333,-64.9
Тариха,Боливия,0,135783,-21.531666666,-64.731111111
Потоси,Боливия,0,240966,-19.583333333,-65.75
Оруро,Боливия,0,264700,-17.966666666,-67.116666666
Ла-Романа,Доминиканская Республика,0,202488,18.43,-68.97
Кередж,Иран,0,1592492,35.816666666,50.966666666
Исфахан,Иран,0,1756126,32.651388888,51.679166666
Насирия,Ирак,0,541600,31.053888888,46.250277777
Алахуэла,Коста-Рика,0,265472,10.016666666,-84.216666666
Хайфа,Израиль,0,278903,32.8,34.983333333
Беэр-Шева,Израиль,0,203604,31.258888888,34.797777777
Коломбо,Шри-Ланка,0,752993,6.916666666,79.833333333
Алеппо,Сирия,0,1800000,36.2,37.15
Ульсан,Республика Корея,0,1166033,35.55,129.316666666
Кванджу,Республика Корея,0,1501557,35.166666666,126.916666666
Кастамону,Турция,0,110908,41.383333333,33.783333333
Тлакепаке,Мексика,0,664193,20.65,-103.316666666
Хасавюрт,Россия,0,140047,43.25,46.583333333
Кисловодск,Россия,0,129861,43.91,42.72
Комсомольск-на-Амуре,Россия,0,249810,50.55,137.0
Копейск,Россия,0,147573,55.1,61.616666666
Королёв,Россия,0,221797,55.916666666,37.816666666
Красногорск,Россия,0,153393,55.816666666,37.333333333
Новошахтинск,Россия,0,108782,47.766666666,39.916666666
Находка,Россия,0,151420,42.816666666,132.883333333
Керчь,Россия,0,149566,45.338611111,36.468055555
Могилёв,Белоруссия,0,370712,53.916666666,30.35
Житомир,Украина,0,267038,50.254444444,28.657777777
Хмельницкий,Украина,0,290100,49.42,27.0
Ивано-Франковск,Украина,0,229447,48.922777777,24.710555555
Сумы,Украина,0,267124,50.90679926,34.799235424
Сумы,Украина,0,270870,50.90679926,34.799235424
Эсмеральдас,Эквадор,0,154035,0.95,-79.666666666
Бендер-Аббас,Иран,0,435751,27.2,56.25
Дахук,Ирак,0,330600,36.85,42.983333333
Бейт-Шемеш,Израиль,0,103922,31.751388888,34.988611111
Бней-Брак,Израиль,0,182799,32.08074,34.8338
Бней-Брак,Израиль,0,182799,32.083333333,34.833333333
Танга,Танзания,0,243580,-5.066666666,39.1
Гамильтон,Канада,0,536917,43.25,-79.866666666
Дьёр,Венгрия,0,129301,47.684166666,17.634444444
Спрингфилд,Соединённые Штаты Америки,0,159498,37.195,-93.286111111
Намюр,Бельгия,0,110665,50.466666666,4.866666666
Йювяскюля,Финляндия,0,137368,62.233333333,25.733333333
Шяуляй,Литва,0,107086,55.928055555,23.316666666
Патры,Греция,0,167446,38.25,21.733333333
Порт-Саид,Египет,0,524433,31.25,32.283333333
Суэц,Египет,0,485342,29.966666666,32.533333333
Эксетер,Великобритания,0,124180,50.721538888,-3.533108333
Сток-он-Трент,Великобритания,0,249008,53.0,-2.183333333
Волгодонск,Россия,0,171471,47.516666666,42.15
Димитровград,Россия,0,116055,54.233333333,49.583333333
Домодедово,Россия,0,124285,55.433333333,37.75
Ессентуки,Россия,0,107104,44.043055555,42.864444444
Железнодорожный,Россия,0,151985,55.75,38.016666666
Жуковский,Россия,0,108980,55.601111111,38.116111111
Луганск,Украина,0,417990,48.583333333,39.333333333
Сандакан,Малайзия,0,396290,5.833333333,118.116666666
Кота-Кинабалу,Малайзия,0,452058,5.971388888,116.095277777
Уинсор,Канада,0,210891,42.318333,-83.034722
Наха,Япония,0,317950,26.212222222,127.678888888
Огаста,Соединённые Штаты Америки,0,196741,33.47,-81.975
Гранд-Рапидс,Соединённые Штаты Америки,0,112571,42.96125,-85.655719444
Ноксвилл,Соединённые Штаты Америки,0,178874,35.966666666,-83.95
Чаттануга,Соединённые Штаты Америки,0,173366,35.045555555,-85.267222222
Аксарай,Турция,0,195990,38.366666666,34.033333333
Джейхан,Турция,0,178543,37.028333333,35.813888888
Кумаси,Гана,0,2069350,6.683333333,-1.616666666
Престон,Великобритания,0,141801,53.759444444,-2.698055555
Сан-Бернарду-ду-Кампу,Бразилия,0,816925,-23.693888888,-46.565
Гуарульюс,Бразилия,0,1324781,-23.466666666,-46.533333333
Сургут,Россия,0,360590,61.25,73.433333333
Прокопьевск,Россия,0,196406,53.883333333,86.716666666
Пушкино,Россия,0,106577,56.016666666,37.85
Гродно,Белоруссия,0,361352,53.666666666,23.816666666
Сумгаит,Азербайджан,0,298000,40.591666666,49.639722222
Рустави,Грузия,0,122900,41.533333333,45.0
Гуантанамо,Куба,0,228436,20.138333,-75.206111
Винья-дель-Мар,Чили,0,334248,-33.033333333,-71.533333333
Ауачапан,Сальвадор,0,110511,13.916666666,-89.85
Урмия,Иран,0,667499,37.55,45.1
Керманшах,Иран,0,851405,34.316666666,47.068611111
Ардебиль,Иран,0,482632,38.25,48.3
Казвин,Иран,0,381598,36.266666666,50.0
Йезд,Иран,0,486152,31.897222222,54.367777777
эль-Куфа,Ирак,0,166100,32.033333333,44.4
Акаба,Иордания,0,140000,29.516666666,35.0
Мандалай,Мьянма,0,952570,21.976944444,96.086944444
Мултан,Пакистан,0,1606481,30.2,71.416666666
Мултан,Пакистан,0,3117000,30.2,71.416666666
Кветта,Пакистан,0,1140000,30.192,67.007
Джелалабад,Афганистан,0,205423,34.430277777,70.452777777
Тобрук,Ливия,0,135832,32.083333333,23.95
Сафи,Марокко,0,308508,32.283333333,-9.233333333
Тетуан,Марокко,0,380787,35.566666666,-5.366666666
Ифе,Нигерия,0,501952,7.466666666,4.566666666
Эль-Аюн,Западная Сахара,1,217732,27.15,-13.2
Вон,Канада,0,306233,43.833333333,-79.5
Маркем,Канада,0,328966,43.8833,-79.25
Брамптон,Канада,0,593638,43.683333333,-79.766666666
Кобе,Япония,0,1532153,34.6913,135.183
Алькала-де-Энарес,Испания,0,194310,40.481815,-3.364305
Фресно,Соединённые Штаты Америки,0,494665,36.781666666,-119.792222222
Луисвилл,Соединённые Штаты Америки,0,701500,38.254166666,-85.760277777
Луисвилл,Соединённые Штаты Америки,0,760026,38.254166666,-85.760277777
Мадисон,Соединённые Штаты Америки,0,236901,43.074722222,-89.384444444
Сейлем,Соединённые Штаты Америки,0,154637,44.930833333,-123.028888888
Талса,Соединённые Штаты Америки,0,391906,36.131388888,-95.937222222
Грин-Бей,Соединённые Штаты Америки,0,104057,44.513333333,-88.015833333
Чарлстон,Соединённые Штаты Америки,0,120083,32.776111111,-79.9325
Чарлстон,Соединённые Штаты Америки,0,127999,32.776111111,-79.9325
Манчестер,Соединённые Штаты Америки,0,109565,42.990833333,-71.463611111
Кембридж,Соединённые Штаты Америки,0,107289,42.375,-71.106111111
Нью-Хейвен,Соединённые Штаты Америки,0,130282,41.308333333,-72.925
Спрингфилд,Соединённые Штаты Америки,0,153060,42.112411,-72.547455
Лоуэлл,Соединённые Штаты Америки,0,109945,42.639444444,-71.314722222
Стамфорд,Соединённые Штаты Америки,0,128278,41.096666666,-73.552222222
Уотербери,Соединённые Штаты Америки,0,110366,41.558333333,-73.036944444
Вустер,Соединённые Штаты Америки,0,183016,42.266666666,-71.8
Эспоо,Финляндия,0,269802,60.21,24.66
Оулу,Финляндия,0,198525,65.016666666,25.466666666
Торунь,Польша,0,202591,53.016666666,18.616666666
Торунь,Польша,0,206765,53.016666666,18.616666666
Эдирне,Турция,0,128000,41.678055555,26.559444444
Трабзон,Турция,0,426882,41.0,39.733333333
Кайсери,Турция,0,904699,38.733333333,35.483333333
Плимут,Великобритания,0,267918,50.371388888,-4.142222222
Дерби,Великобритания,0,248700,52.916666666,-1.466666666
Харбин,Китайская Народная Республика,0,5015000,45.75,126.633333333
Белу-Оризонти,Бразилия,0,2513451,-19.891666666,-43.947777777
Форталеза,Бразилия,0,2452185,-3.781388888,-38.588888888
Орск,Россия,0,230414,51.2,58.616666666
Орск,Россия,0,230414,51.20487,58.56685
Донецк,Украина,0,929063,48.008888888,37.804166666
Пльзень,Чехия,0,170936,49.741388888,13.3825
Ла-Плата,Аргентина,0,799523,-34.933333333,-57.95
Ресистенсия,Аргентина,0,291720,-27.451388888,-58.986666666
Корриентес,Аргентина,0,352646,-27.483333333,-58.816666666
Парана,Аргентина,0,247863,-31.744444444,-60.5175
Формоса,Аргентина,0,222226,-26.184722222,-58.175833333
Сан-Сальвадор-де-Жужуй,Аргентина,0,231229,-24.185555555,-65.299444444
Ла-Риоха,Аргентина,0,180995,-29.413055555,-66.855833333
Мендоса,Аргентина,0,115041,-32.883333333,-68.833333333
Сан-Хуан,Аргентина,0,471389,-31.5375,-68.536388888
Сан-Луис,Аргентина,0,169947,-33.277222222,-66.3525
Сан-Мигель-де-Тукуман,Аргентина,0,527607,-26.816666666,-65.216666666
Хассан,Индия,0,133436,13.005,76.102777777
Амритсар,Индия,0,1132383,31.616666666,74.85
Гуаякиль,Эквадор,0,2644891,-2.183333333,-79.883333333
Медельин,Колумбия,0,2529403,6.244747222,-75.574827777
Сантьяго-де-лос-Трейнта-Кабальерос,Доминиканская Республика,0,1142947,19.45,-70.7
Басра,Ирак,0,2150000,30.488888888,47.81
Ош,Киргизия,0,251000,40.533333333,72.783333333
Герат,Афганистан,0,436300,34.37385,62.179180555
Кандагар,Афганистан,0,491500,31.607777777,65.705277777
Кингстон,Канада,0,123798,44.233333333,-76.5
Оцу,Япония,0,340544,35.016666666,135.85
Миядзаки,Япония,0,398360,31.916666666,131.416666666
Ямагата,Япония,0,251614,38.25,140.333333333
Мацуэ,Япония,0,204890,35.468055555,133.048611111
Химедзи,Япония,0,532994,34.816666666,134.683333333
Атенс,Соединённые Штаты Америки,0,115452,33.955277777,-83.383055555
Модесто,Соединённые Штаты Америки,0,201165,37.661388888,-120.994444444
Вальехо,Соединённые Штаты Америки,0,115942,38.104088,-122.256638
Таузенд-Оукс,Соединённые Штаты Америки,0,126683,34.189444444,-118.875
Саннивейл,Соединённые Штаты Америки,0,140081,37.368888888,-122.036944444
Окснард,Соединённые Штаты Америки,0,205437,34.191388888,-119.1825
Дюздже,Турция,0,135557,40.841666666,31.158333333
Файюм,Египет,0,315940,29.3,30.833333333
Кульякан,Мексика,0,858638,24.8,-107.383333333
Челмсфорд,Великобритания,0,115369,51.7361,0.4798
Пинск,Белоруссия,0,137542,52.116666666,26.083333333
Бобруйск,Белоруссия,0,218271,53.15,29.233333333
Орша,Белоруссия,0,116936,54.509166666,30.425833333
Биелина,Босния и Герцеговина,0,114663,44.75,19.216666666
Санта-Клара,Куба,0,207963,22.406666666,-79.953055555
Кахамарка,Перу,0,283767,-7.164444444,-78.510555555
Хаора,Индия,0,1077075,22.59,88.31
Каттак,Индия,0,606007,20.45,85.866666666
Тируччираппалли,Индия,0,916857,11.35,79.15
Пури,Индия,0,201026,19.8,85.816666666
Импхал,Индия,0,414288,25.366666666,94.583333333
Амбато,Эквадор,0,165185,-1.241666666,-78.619722222
Семнан,Иран,0,153680,35.583333333,53.383333333
Эрак,Иран,0,484212,34.08,49.7
Реховот,Израиль,0,132671,31.891388888,34.807777777
Бат-Ям,Израиль,0,128892,32.023055555,34.750277777
Леон,Никарагуа,0,184041,12.433333333,-86.883333333
Эль-Камышлы,Сирия,0,184231,37.05,41.216666666
Уамбо,Ангола,0,665564,-12.766666666,15.733333333
Кананга,Демократическая Республика Конго,0,1971704,-5.897,22.448833333
Бейра,Мозамбик,0,436240,-19.833333333,34.85
Зиндер,Нигер,0,321809,13.8,8.983333333
Абеокута,Нигерия,0,888924,7.15,3.35
Кадуна,Нигерия,0,760084,10.523055555,7.440277777
Зигиншор,Сенегал,0,230000,12.583333333,-16.266666666
Порт-Судан,Судан,0,489275,19.615833333,37.216388888
Миссиссога,Канада,0,721599,43.6,-79.65
Ричмонд-Хилл,Канада,0,185541,43.8849,-79.4304
Рочестер,Соединённые Штаты Америки,0,210565,43.165555555,-77.611388888
Ирвайн,Соединённые Штаты Америки,0,250384,33.684166666,-117.7925
Фримонт,Соединённые Штаты Америки,0,210160,37.543055555,-121.982777777
Фримонт,Соединённые Штаты Америки,0,220000,37.543055555,-121.982777777
Скотсдейл,Соединённые Штаты Америки,0,217385,33.493055555,-111.926111111
Рино,Соединённые Штаты Америки,0,225221,39.527222222,-119.821944444
Уинстон-Сейлем,Соединённые Штаты Америки,0,236441,36.1025,-80.260555555
Дарем,Соединённые Штаты Америки,0,228330,35.9875,-78.907222
Орландо,Соединённые Штаты Америки,0,238300,28.533611111,-81.386666666
Гринсборо,Соединённые Штаты Америки,0,279639,36.08,-79.819444444
Стоктон,Соединённые Штаты Америки,0,290409,37.975555555,-121.300833333
Лексингтон,Соединённые Штаты Америки,0,295803,38.029722222,-84.494722222
Корпус-Кристи,Соединённые Штаты Америки,0,316381,27.742777777,-97.401944444
Риверсайд,Соединённые Штаты Америки,0,303871,33.948063888,-117.396127777
Санта-Ана,Соединённые Штаты Америки,0,324528,33.740833333,-117.881388888
Аврора,Соединённые Штаты Америки,0,325078,39.695833333,-104.808055555
Анахайм,Соединённые Штаты Америки,0,336265,33.836111111,-117.889722222
Тампа,Соединённые Штаты Америки,0,347645,27.970833333,-82.464722222
Бейкерсфилд,Соединённые Штаты Америки,0,347483,35.405833333,-119.018611111
Колорадо-Спрингс,Соединённые Штаты Америки,0,416427,38.863333333,-104.791944444
Меса,Соединённые Штаты Америки,0,439041,33.415,-111.831388888
Уичито,Соединённые Штаты Америки,0,382368,37.688888888,-97.336111111
Хендерсон,Соединённые Штаты Америки,0,257729,36.031666666,-114.981388888
Форт-Уэйн,Соединённые Штаты Америки,0,253691,41.08045,-85.13915
Чула-Виста,Соединённые Штаты Америки,0,243916,32.627777777,-117.048055555
Чандлер,Соединённые Штаты Америки,0,236123,33.303333333,-111.841388888
Лаббок,Соединённые Штаты Америки,0,243839,33.566666666,-101.883333333
Гарленд,Соединённые Штаты Америки,0,226876,32.906944,-96.635
Хайалиа,Соединённые Штаты Америки,0,224669,25.860555555,-80.293888888
Гарден-Гроув,Соединённые Штаты Америки,0,170883,33.778889,-117.960278
Глендейл,Соединённые Штаты Америки,0,226721,33.583333333,-112.2
Темпе,Соединённые Штаты Америки,0,161719,33.429444444,-111.943055555
Пеория,Соединённые Штаты Америки,0,154065,33.5825,-112.238611111
Сюрпрайз (Аризона),Соединённые Штаты Америки,0,117517,33.629194444,-112.367797222
Плано,Соединённые Штаты Америки,0,269776,33.05,-96.75
Ирвинг,Соединённые Штаты Америки,0,216290,32.811666666,-96.950833333
Амарилло,Соединённые Штаты Америки,0,190695,35.199166666,-101.845277777
Браунсвилл,Соединённые Штаты Америки,0,183046,25.930277777,-97.484444444
Пасадина,Соединённые Штаты Америки,0,149043,29.676111111,-95.173888888
Мескит,Соединённые Штаты Америки,0,143484,32.78278,-96.60972
Мак-Кинни,Соединённые Штаты Америки,0,155142,33.2,-96.633333333
Мак-Аллен,Соединённые Штаты Америки,0,140717,26.216388888,-98.236388888
Вест-Вэлли-Сити,Соединённые Штаты Америки,0,132434,40.689166666,-111.993888888
Уэст-Джордан,Соединённые Штаты Америки,0,108383,40.606388888,-111.976111111
Калиш,Польша,0,103738,51.7575,18.08
Чита,Россия,0,347088,52.033333333,113.5
Пунта-Аренас,Чили,0,127454,-53.15,-70.916666666
Баия-Бланка,Аргентина,0,301572,-38.75,-62.2
Баия-Бланка,Аргентина,0,301572,-38.716666666,-62.266666666
Кали,Колумбия,0,2445281,3.44,-76.519722222
Хатинохе,Япония,0,227090,40.512222222,141.488333333
Мостолес,Испания,0,206589,40.333333333,-3.866666666
Думьят,Египет,0,206664,31.416666666,31.816666666
Леон-де-лос-Альдама,Мексика,0,1436733,21.119722222,-101.680555555
Эрмосильо,Мексика,0,884342,29.095555555,-110.950833333
Харэр,Эфиопия,0,129000,9.311111111,42.127777777
Дыре-Дауа,Эфиопия,0,277000,9.583333333,41.866666666
Рибейран-Прету,Бразилия,0,666323,-21.178333333,-47.806666666
Сорокаба,Бразилия,0,644919,-23.501944444,-47.457777777
Петрополис,Бразилия,0,298142,-22.505,-43.178888888
Сан-Жозе-дус-Кампус,Бразилия,0,688597,-23.178888888,-45.886944444
Санту-Андре,Бразилия,0,710210,-23.657222222,-46.533333333
Сан-Жозе-ду-Риу-Прету,Бразилия,0,442548,-20.82,-49.378888888
Кампина-Гранди,Бразилия,0,405072,-7.230555555,-35.881111111
Северодвинск,Россия,0,183996,64.566666666,39.85
Реутов,Россия,0,100142,55.766666666,37.866666666
Рубцовск,Россия,0,145333,51.516666666,81.2
Рыбинск,Россия,0,190429,58.05,38.833333333
Салават,Россия,0,153181,53.366666666,55.933333333
Сергиев Посад,Россия,0,104579,56.3,38.133333333
Сьенфуэгос,Куба,0,164924,22.145555555,-80.436388888
Кэрнс,Австралия,0,146778,-16.925555555,145.775277777
Таунсвилл,Австралия,0,178649,-19.262222222,146.815833333
Икитос,Перу,0,370962,-3.733333333,-73.25
Сьюдад-дель-Эсте,Парагвай,0,320782,-25.516666666,-54.616666666
Горган,Иран,0,312223,36.83,54.48
Эль-Фаллуджа,Ирак,0,326471,33.35,43.783333333
Эр-Рамади,Ирак,0,456853,33.416666666,43.3
Петах-Тиква,Израиль,0,230984,32.083333333,34.883333333
Холон,Израиль,0,188834,32.016666666,34.766666666
Нетания,Израиль,0,207946,32.333333333,34.85
Рамат-Ган,Израиль,0,152596,32.083333333,34.816666666
Булавайо,Зимбабве,0,653337,-20.166666666,28.566666666
Сабрата,Ливия,0,102038,32.792222222,12.484166666
Блантайр,Малави,0,1895973,-15.786111111,35.005833333
Уджда,Марокко,0,494252,34.686666666,-1.911388888
Мейкон,Соединённые Штаты Америки,0,153691,32.83583,-83.64639
Пеория,Соединённые Штаты Америки,0,115828,40.720833333,-89.609444444
Ванкувер,Соединённые Штаты Америки,0,161791,45.633611111,-122.602777777
Исмаилия,Египет,0,293184,30.583333333,32.266666666
Эль-Мансура,Египет,0,439348,31.05,31.383333333
Эль-Ариш,Египет,0,137944,31.133333333,33.8
Момбаса,Кения,0,1200000,-4.05,39.666666666
Накуру,Кения,0,307990,-0.283333333,36.066666666
Гондэр,Эфиопия,0,323900,12.6,37.466666666
Тамале,Гана,0,466723,9.4075,-0.853333333
Барановичи,Белоруссия,0,178678,53.116666666,25.983333333
Джелонг,Австралия,0,184182,-38.15,144.35
Пукальпа,Перу,0,211611,-8.383333333,-74.55
Пьюра,Перу,0,477801,-5.200833333,-80.625277777
Пуно,Перу,0,120229,-15.843333333,-70.023611111
Насон,Корейская Народно-Демократическая Республика,0,196954,42.344444444,130.384444444
Мадурай,Индия,0,1561129,9.919661111,78.119394444
Солапур,Индия,0,951558,17.683333333,75.916666666
Гургаон,Индия,0,876824,28.466666666,77.033333333
Мачала,Эквадор,0,231260,-3.266666666,-79.966666666
Кап-Аитьен,Республика Гаити,0,190289,19.75,-72.2
Дейр-эз-Зор,Сирия,0,211857,35.333333333,40.15
Аль-Айн,Объединённые Арабские Эмираты,0,631005,24.2075,55.744722222
Намибе,Ангола,0,162000,-15.195277777,12.150833333
Кабве,Замбия,0,117517,-14.433333333,28.45
Ндола,Замбия,0,455194,-12.968269444,28.6337
Малакаль,Южный Судан,0,147450,9.533333333,31.65
Серекунда,Гамбия,0,348118,13.433333333,-16.666666666
Зомба,Малави,0,101140,-15.383333333,35.333333333
Эль-Джадида,Марокко,0,194934,33.233333333,-8.5
Майдугури,Нигерия,0,1197497,11.833333333,13.15
Картахена,Испания,0,214177,37.6,-0.98333333
Картахена,Испания,0,214177,37.6,-0.981944444
Уэст-Палм-Бич,Соединённые Штаты Америки,0,104031,26.709722222,-80.064166666
Куопио,Финляндия,0,112117,62.8925,27.678333333
Ираклион,Греция,0,140730,35.333333333,25.133333333
Батман,Турция,0,348963,37.883333333,41.133333333
Муром,Россия,0,109809,55.5725,42.051388888
Раменское,Россия,0,112989,55.566666666,38.216666666
Раменское,Россия,0,112989,55.56694,38.23028
Назрань,Россия,0,116020,43.216666666,44.766666666
Горловка,Украина,0,256714,48.333611111,38.0925
Кропивницкий,Украина,0,232052,48.510277777,32.266666666
Русе,Болгария,0,166056,43.8475,25.954444444
Плевен,Болгария,0,110520,43.407777777,24.620277777
Влёра,Албания,0,130827,40.45,19.483333333
Усть-Каменогорск,Казахстан,0,316699,49.95,82.616666666
Гвалиор,Индия,0,1101981,26.215,78.193055555
Аллахабад,Индия,0,5954391,25.45,81.85
Бушир,Иран,0,195222,28.983333333,50.816666666
Тикрит,Ирак,0,105700,34.6,43.683333333
Даммам,Саудовская Аравия,0,903000,26.283333333,50.2
Гаруа,Камерун,0,235996,9.3,13.4
Сирт,Ливия,0,140000,31.2,16.6
Калитея,Греция,0,100641,37.95,23.7
Актобе,Казахстан,0,387807,50.3,57.166666666
Ургенч,Узбекистан,0,100010,41.55,60.633333333
Ургенч,Узбекистан,0,126380,41.55,60.633333333
Ургенч,Узбекистан,0,135100,41.55,60.633333333
Риобамба,Эквадор,0,146324,-1.674347222,-78.648294444
Алор-Сетар,Малайзия,0,217000,6.116666666,100.366666666
Лашкаргах,Афганистан,0,201546,31.583055555,64.366666666
Нара,Япония,0,356992,34.683333333,135.783333333
Адыяман,Турция,0,296316,37.763888888,38.277777777
Айдын,Турция,0,191037,37.848055555,27.845277777
Денизли,Турция,0,963464,37.773055555,29.087777777
Глостер,Великобритания,0,145563,51.881111111,-2.243333333
Масейо,Бразилия,0,1029129,-9.665833333,-35.735
Таубате,Бразилия,0,302331,-23.033333333,-45.55
Таганрог,Россия,0,250287,47.233333333,38.9
Стара-Загора,Болгария,0,138272,42.424722222,25.625555555
Крагуевац,Сербия,0,150835,44.014166666,20.939444444
Тривандрам,Индия,0,743691,8.5,76.899722222
Сринагар,Индия,0,1192792,34.091111111,74.806111111
Санта-Крус-де-ла-Сьерра,Боливия,0,1453549,-17.789166666,-63.1975
Санта-Крус-де-ла-Сьерра,Боливия,0,1453549,-17.789166666,-63.1975
Сари,Иран,0,296417,36.565833333,53.059722222
Ахваз,Иран,0,1112021,31.320277777,48.669166666
Кум,Иран,0,1292283,34.646111111,50.878888888
Ан-Наджаф,Ирак,0,724700,32.028951,44.339621
Самарра,Ирак,0,140400,34.2,43.866666666
Абботтабад,Пакистан,0,148587,34.15,73.216666666
Паттайя,Таиланд,0,115840,12.923055555,100.871944444
Агадир,Марокко,0,421844,30.416666666,-9.583333333
Уберландия,Бразилия,0,604013,-18.918888888,-48.276944444
Можи-дас-Крузис,Бразилия,0,424633,-23.522777777,-46.193055555
Сан-Карлус,Бразилия,0,241389,-22.017777777,-47.890833333
Северск,Россия,0,107922,56.6,84.85
Серпухов,Россия,0,125929,54.916666666,37.4
Старый Оскол,Россия,0,223360,51.298055555,37.835
Стерлитамак,Россия,0,280233,53.633333333,55.95
Уссурийск,Россия,0,170660,43.8,131.95
Химки,Россия,0,244668,55.889166666,37.445
Каменец-Подольский,Украина,0,100462,48.680555555,26.580555555
Ирбид,Иордания,0,1088100,32.55,35.85
Джарамана,Сирия,0,114363,33.483333333,36.35
Сан-Кристобаль-де-ла-Лагуна,Испания,0,153655,28.48,-16.32
Колумбия,Соединённые Штаты Америки,0,108500,38.948333333,-92.333888888
Кошалин,Польша,0,108576,54.190277777,16.181666666
Джульяно-ин-Кампанья,Италия,0,123276,40.93188,14.19557
Пирей,Греция,0,163688,37.966666666,23.633333333
Афьон-Карахисар,Турция,0,263297,38.758055555,30.538611111
Сан-Франсиско-де-Кампече,Мексика,0,220389,19.848611111,-90.525277777
Чиуауа,Мексика,0,878062,28.635277777,-106.088888888
Портсмут,Великобритания,0,248440,50.795277777,-1.088888888
Дзержинск,Россия,0,231797,56.233333333,43.45
Куманово,Республика Македония,0,105484,42.140277777,21.713611111
Семей,Казахстан,0,340000,50.411111111,80.2275
Нови-Сад,Сербия,0,250439,45.264444444,19.831666666
Ньюкасл,Австралия,0,152984,-32.916666666,151.75
Сатна,Индия,0,283004,24.16,80.83
Нави Мумбаи,Индия,0,1119477,19.03,73.01
Канпур,Индия,0,2701324,26.4725,80.331111111
Индаур,Индия,0,2201927,22.720555555,75.847222222
Валенсия,Венесуэла,0,830000,10.166666666,-68.0
Куэнка,Эквадор,0,329928,-2.902222222,-79.005261111
Барранкилья,Колумбия,0,1232766,10.963888888,-74.796388888
Абадан,Иран,0,231476,30.35,48.283333333
Ашкелон,Израиль,0,130660,31.665833333,34.566388888
Малакка,Малайзия,0,455300,2.188888888,102.251111111
Джорджтаун,Малайзия,0,708127,5.4145,100.3292
Бернаби,Канада,0,223218,49.25,-122.949167
Нисиномия,Япония,0,488398,34.733333333,135.333333333
Хигасиосака,Япония,0,498099,34.679444444,135.600833333
Нейпервилл,Соединённые Штаты Америки,0,141853,41.748055555,-88.165555555
Клируотер,Соединённые Штаты Америки,0,107685,27.973611111,-82.764166666
Бауру,Бразилия,0,366992,-22.314722222,-49.060555555
Пинар-дель-Рио,Куба,0,188614,22.412222222,-83.671944444
Ольгин,Куба,0,350191,20.888333333,-76.255833333
Маргилан,Узбекистан,0,110015,40.466666666,71.716666666
Маргилан,Узбекистан,0,124847,40.466666666,71.716666666
Маргилан,Узбекистан,0,215400,40.466666666,71.716666666
Чиклайо,Перу,0,574408,-6.762961111,-79.836613888
Бхилаи,Индия,0,625700,21.366666666,81.716666666
Сахаранпур,Индия,0,705478,29.964,77.546
Джханси,Индия,0,507000,25.44862,78.56962
Горакхпур,Индия,0,673446,26.75,83.366666666
Джамму,Индия,0,502197,32.733333333,74.85
Хилла,Ирак,0,780000,32.483333333,44.433333333
Бурайда,Саудовская Аравия,0,614093,26.333333333,43.966666666
Чханвон,Республика Корея,0,1059241,35.228055555,128.681111111
Кхулна,Бангладеш,0,1311100,22.816666666,89.55
Морогоро,Танзания,0,207000,-6.823055555,37.661666666
Кигома,Танзания,0,130142,-4.883333333,29.633333333
Мелайер,Иран,0,153748,34.294166666,48.82
Сирджан,Иран,0,199704,29.451944444,55.681388888
Касама,Замбия,0,168102,-10.211666666,31.178333333
Вена,Австрия,1,1840573,48.20833,16.373064
Лондон,Великобритания,1,8787892,51.507222222,-0.1275
Москва,Россия,1,12500123,55.755833333,37.617777777
Москва,Россия,1,12500123,55.755833333,37.617777777
Берлин,Германия,1,3574830,52.516666666,13.383333333
Тегеран,Иран,1,8846782,35.7,51.416666666
Абу-Даби,Объединённые Арабские Эмираты,1,1000000,24.478055555,54.368611111
Дакка,Бангладеш,1,8906039,23.7,90.366666666
Дакка,Бангладеш,1,8906039,23.7,90.366666666
Монреаль,Канада,0,1704694,45.508056,-73.555
Марбелья,Испания,0,141172,36.511363888,-4.883441666
Нью-Йорк,Соединённые Штаты Америки,0,8537673,40.67,-73.94
Беркли,Соединённые Штаты Америки,0,112580,37.870277777,-122.268055555
Санкт-Петербург,Россия,0,5281579,59.95,30.316666666
Севастополь,Россия,0,428753,44.6,33.533333333
Кёльн,Германия,0,1075935,50.942222222,6.957777777
Гамбург,Германия,0,1810438,53.55,10.0
Мюнхен,Германия,0,1464301,48.137194444,11.5755
Острава,Чехия,0,290450,49.835555555,18.2925
Брно,Чехия,0,379527,49.195277777,16.608333333
Пльзень,Чехия,0,170936,49.741388888,13.3825
Оломоуц,Чехия,0,100494,49.596111111,17.260277777
Либерец,Чехия,0,103979,50.7787225,14.9742866
Караганда,Казахстан,0,501129,49.8,73.116666666
Дели,Индия,0,26495000,28.666666666,77.216666666
Хайдарабад,Индия,0,9305000,17.366666666,78.466666666
Карачи,Пакистан,0,14910352,24.86,67.01
Карачи,Пакистан,0,14910352,24.9056,67.0822
Лагос,Нигерия,0,21324000,6.45,3.4
Алькобендас,Испания,0,114864,40.533333333,-3.633333333
Глендейл,Соединённые Штаты Америки,0,191719,34.170833333,-118.25
Сидар-Рапидс,Соединённые Штаты Америки,0,126326,41.983333333,-91.668611111
Эвансвилл,Соединённые Штаты Америки,0,117429,37.974722222,-87.555833333
Канзас-Сити,Соединённые Штаты Америки,0,145786,39.106666666,-94.676388888
Рочестер,Соединённые Штаты Америки,0,110742,44.0234,-92.46295
Помона,Соединённые Штаты Америки,0,149058,34.060833333,-117.755833333
Саут-Бенд,Соединённые Штаты Америки,0,101168,41.6725,-86.255277777
Гейнсвилл,Соединённые Штаты Америки,0,128460,29.665277777,-82.336111111
Салинас,Соединённые Штаты Америки,0,150441,36.677777777,-121.655555555
Оушенсайд,Соединённые Штаты Америки,0,174558,33.211666666,-117.325833333
Палмдейл,Соединённые Штаты Америки,0,152750,34.581111111,-118.100555555
Дауни,Соединённые Штаты Америки,0,111772,33.938055555,-118.130833333
Торранс,Соединённые Штаты Америки,0,145438,33.8358492,-118.3406288
Вентура,Соединённые Штаты Америки,0,106433,34.275,-119.227777777
Конкорд,Соединённые Штаты Америки,0,125880,37.978055555,-122.031111111
Флинт,Соединённые Штаты Америки,0,102434,43.01,-83.69
Форт-Коллинс,Соединённые Штаты Америки,0,143986,40.566666666,-105.083333333
Шымкент,Казахстан,0,854500,42.3,69.6
Павлодар,Казахстан,0,353930,52.315555555,76.956388888
Атырау,Казахстан,0,163221,47.116666666,51.883333333
Уральск,Казахстан,0,271900,51.233333333,51.366666666
Петропавловск,Казахстан,0,216406,54.862222222,69.140833333
Кокшетау,Казахстан,0,103162,53.291666666,69.391666666
Кокшетау,Казахстан,0,123389,53.291666666,69.391666666
Кокшетау,Казахстан,0,135106,53.291666666,69.391666666
Кокшетау,Казахстан,0,135424,53.291666666,69.391666666
Кокшетау,Казахстан,0,153057,53.291666666,69.391666666
Фергана,Узбекистан,0,340600,40.386388888,71.786388888
Андижан,Узбекистан,0,130912,40.7,72.35
Андижан,Узбекистан,0,188005,40.7,72.35
Андижан,Узбекистан,0,229923,40.7,72.35
Андижан,Узбекистан,0,293227,40.7,72.35
Андижан,Узбекистан,0,425500,40.7,72.35
Нукус,Узбекистан,0,108978,42.464722222,59.602222222
Нукус,Узбекистан,0,170362,42.464722222,59.602222222
Нукус,Узбекистан,0,230000,42.464722222,59.602222222
Дашогуз,Туркмения,0,111406,41.816666666,59.983055555
Дашогуз,Туркмения,0,141800,41.816666666,59.983055555
Дашогуз,Туркмения,0,199500,41.816666666,59.983055555
Дашогуз,Туркмения,0,227184,41.816666666,59.983055555
Туркменабад,Туркмения,0,140182,39.07328,63.57861
Туркменабад,Туркмения,0,160799,39.07328,63.57861
Туркменабад,Туркмения,0,189200,39.07328,63.57861
Туркменабад,Туркмения,0,253000,39.07328,63.57861
Туркменабад,Туркмения,0,408906,39.07328,63.57861
Туркменабад,Туркмения,0,140182,39.1,63.566666666
Туркменабад,Туркмения,0,160799,39.1,63.566666666
Туркменабад,Туркмения,0,189200,39.1,63.566666666
Туркменабад,Туркмения,0,253000,39.1,63.566666666
Туркменабад,Туркмения,0,408906,39.1,63.566666666
Москва,Россия,1,12500123,55.755833333,37.617777777
Арарас,Бразилия,0,128895,-22.356944444,-47.383888888
Луцк,Украина,0,217082,50.747777777,25.324444444
Лисичанск,Украина,0,103459,48.916944444,38.430555555
Бердянск,Украина,0,114205,46.759787424,36.784501356
Белая Церковь,Украина,0,206441,49.783333333,30.116666666
Мелитополь,Украина,0,154992,46.833333333,35.366666666
Донецк,Украина,0,929063,48.008888888,37.804166666
Каменское,Украина,0,237244,48.50763469,34.61319031
Васаи-Вирар,Индия,0,1222390,19.47,72.8
Сатара,Индия,0,326789,17.683333333,73.983333333
Анцирабе,Мадагаскар,0,244900,-19.866666666,47.033333333
Илорин,Нигерия,0,847582,8.5,4.55
Нагоя,Япония,0,2314125,35.116666666,136.933333333
Фукуока,Япония,0,1567189,33.590277777,130.401944444
Киото,Япония,0,1466937,35.011666666,135.768055555
Хиросима,Япония,0,1198555,34.385277777,132.455277777
Осака,Япония,0,2713157,34.693611111,135.501944444
Саппоро,Япония,0,1951523,43.05,141.35
Иокогама,Япония,0,3731706,35.433333333,139.633333333
Сендай,Япония,0,1058070,38.268333333,140.869444444
Кобе,Япония,0,1532153,34.6913,135.183
Кобе,Япония,0,1532153,34.6913,135.183
Чжуншань,Китайская Народная Республика,0,3121275,22.533333333,113.35
Белен,Бразилия,0,1393399,-1.455833333,-48.503888888
Ресифи,Бразилия,0,1555039,-8.053888888,-34.880833333
Кёльн,Германия,0,1075935,50.942222222,6.957777777
Маскара,Алжир,0,108629,35.383333333,0.15
Ангрен (город),Узбекистан,0,126962,41.016666666,70.133333333
Джайпур,Индия,0,3073350,26.916666666,75.866666666
Канпур,Индия,0,2701324,26.4725,80.331111111
Кали,Колумбия,0,2445281,3.44,-76.519722222
Абботсфорд,Канада,0,133497,49.054611111,-122.328
Итиномия,Япония,0,380672,35.35,136.766666666
Цукуба,Япония,0,234455,36.033333333,140.066666666
Шубра-Эль-Хейма,Египет,0,1025569,30.128611111,31.242222222
Танта,Египет,0,429503,30.783333333,31.0
Гуаружа,Бразилия,0,311230,-23.993611111,-46.256388888
Сан-Висенти,Бразилия,0,355542,-23.963333333,-46.392222222
Жундиаи,Бразилия,0,401896,-23.186388888,-46.884166666
Матансас,Куба,0,145246,23.049444,-81.573611
Такна,Перу,0,320240,-18.055555555,-70.248333333
Белгаум,Индия,0,488157,15.866666666,74.5
Яватмал,Индия,0,132000,20.4,78.133333333
Сан-Педро-Сула,Гондурас,0,1073824,15.5,-88.033333333
Сенендедж,Иран,0,373987,35.309722222,46.998888888
Баакуба,Ирак,0,467900,33.744722222,44.643611111
Давид,Панама,0,144858,8.433333333,-82.433333333
Ходейда,Йемен,0,548433,14.802222222,42.951111111
Ипох,Малайзия,0,637000,4.6,101.07
Эр-Ракка,Сирия,0,196529,35.95,39.016666666
Моши,Танзания,0,144739,-3.334883333,37.340380555
Сен-Луи,Сенегал,0,176000,16.033333333,-16.5
Кингстон,Ямайка,1,937700,17.983333333,-76.8
Токио,Япония,1,9272565,35.683889,139.774444
Мары,Туркмения,0,126141,37.6,61.833333333
Мары,Туркмения,0,208682,37.6,61.833333333
Кэрролтон,Соединённые Штаты Америки,0,126700,32.99,-96.893333333
Дейтон,Соединённые Штаты Америки,0,141527,39.766666666,-84.2
Йоханнесбург,Южно-Африканская Республика,0,4434827,-26.145,28.050277777
Йоханнесбург,Южно-Африканская Республика,0,4434827,-26.145,28.050277777
Йоханнесбург,Южно-Африканская Республика,0,4434827,-26.145,28.050277777
Уэйко,Соединённые Штаты Америки,0,124805,31.551388888,-97.155833333
Шеффилд,Великобритания,0,518090,53.3825,-1.471944444
Йорк,Великобритания,0,257342,53.95,-1.083333333
Санта-Роза,Соединённые Штаты Америки,0,167815,38.448611111,-122.704722222
Белвью,Соединённые Штаты Америки,0,122363,47.5975,-122.159166666
Трухильо,Перу,0,803546,-8.111944444,-79.028888888
Акола,Индия,0,425817,20.733333333,77.0
Барели,Индия,0,1000000,28.364,79.415
Варангал,Индия,0,811844,17.975555555,79.601111111
Харьков,Украина,0,1445098,50.0,36.229166666
Хургада,Египет,0,160901,27.257777777,33.811666666
Константина,Алжир,0,442862,36.365,6.614722222
Макеевка,Украина,0,347376,48.055555555,37.961111111
Ансан,Республика Корея,0,747035,37.323611111,126.821944444
Анян,Республика Корея,0,585177,37.3925,126.926944444
Иксан,Республика Корея,0,302310,35.943888888,126.954444444
Чхонан,Республика Корея,0,629062,36.806388888,127.152222222
Хвасон,Республика Корея,0,655350,37.2,126.766666666
Аль-Байда,Ливия,0,250000,32.75,21.733333333
Бенгази,Ливия,0,631555,32.116666666,20.066666666
Керчь,Украина,0,149566,45.338611111,36.468055555
Бирдженд,Иран,0,178020,32.866666666,59.2
Коламбус,Соединённые Штаты Америки,0,200887,32.492222222,-84.940277777
Китве-Нкана,Замбия,0,504194,-12.820833333,28.211944444
Форт-Лодердейл,Соединённые Штаты Америки,0,178752,26.135833333,-80.141944444
Невинномысск,Россия,0,117676,44.633333333,41.933333333
Кенитра,Марокко,0,431282,34.25,-6.583333333
Большой Тегеран,Иран,0,13805000,35.6961,51.4231
Хэйворд,Соединённые Штаты Америки,0,149392,37.668888888,-122.080833333
Фонтана,Соединённые Штаты Америки,0,203003,34.1,-117.466666666
Санта-Кларита,Соединённые Штаты Америки,0,219611,34.416389,-118.506389
Талдыкорган,Казахстан,0,129960,45.016666666,78.366666666
Кызылорда,Казахстан,0,200900,44.85,65.516666666
Шираз,Иран,0,1460665,29.6,52.516666666
Пешавар,Пакистан,0,1970042,34.0,71.5
Хайдарабад,Пакистан,0,3429471,25.379166666,68.368333333
Кавагоэ,Япония,0,353321,35.933333333,139.483333333
Сими-Вэлли,Соединённые Штаты Америки,0,124237,34.270833,-118.739167
Фэйрфилд,Соединённые Штаты Америки,0,105321,38.257777777,-122.054166666
Кларксвилл (Теннесси),Соединённые Штаты Америки,0,132929,36.5297222,-87.3594444
Эль-Минья,Египет,0,236043,28.083333333,30.75
Эль-Махалла-эль-Кубра,Египет,0,442958,30.966666666,31.166666666
Даманхур,Египет,0,244043,31.05,30.466666666
Кафр-эш-Шейх,Египет,0,147393,31.1,30.95
Нуэво-Ларедо,Мексика,0,373725,27.486111111,-99.506944444
Элдорет,Кения,0,193830,0.516666666,35.283333333
Риу-Клару,Бразилия,0,199961,-22.410833333,-47.560833333
Писко,Перу,0,109961,-13.709980555,-76.203205555
Коллам,Индия,0,397419,8.885277777,76.586388888
Боджнурд,Иран,0,199791,37.466666666,57.333333333
Эль-Кут,Ирак,0,377600,32.514722222,45.818888888
Эль-Мукалла,Йемен,0,144137,14.533333333,49.133333333
Эль-Баб,Сирия,0,144705,36.3725,37.517777777
Хасеке,Сирия,0,188160,36.511666666,40.742222222
Шарджа,Объединённые Арабские Эмираты,0,1400000,25.3575,55.391944444
Раджшахи,Бангладеш,0,448087,24.366666666,88.6
Бата,Экваториальная Гвинея,0,230282,1.85,9.75
Шаи-Шаи,Мозамбик,0,116343,-25.05,33.65
Келимане,Мозамбик,0,192876,-17.876388888,36.887222222
Нампула,Мозамбик,0,477900,-15.116666666,39.266666666
Джос,Нигерия,0,873943,9.933333333,8.883333333
Северный Хартум,Судан,0,900000,15.633333333,32.633333333
Киев,Украина,1,2907684,50.45,30.523611111
Киев,Украина,1,2934522,50.45,30.523611111
Инглвуд,Соединённые Штаты Америки,0,109673,33.9575,-118.346111111
Индаятуба,Бразилия,0,231033,-23.090277777,-47.218055555
Араракуара,Бразилия,0,226508,-21.793888888,-48.175833333
Арасатуба,Бразилия,0,192757,-21.208888888,-50.432777777
Севастополь,Россия,0,428753,44.6,33.533333333
Остров Виктория,Нигерия,0,217362,6.45,3.366666666
Арвада,Соединённые Штаты Америки,0,106433,39.8027644,-105.0874842
Олат,Соединённые Штаты Америки,0,125872,38.8808,-94.8031
Каменское,Украина,0,239440,48.50763469,34.61319031
Кременчуг,Украина,0,225216,49.0775,33.423888888
Ивано-Франковск,Украина,0,229447,48.922777777,24.710555555
Херсон,Украина,0,296161,46.633333333,32.6
Ровно,Украина,0,249477,50.619722222,26.251388888
Тернополь,Украина,0,217773,49.566666666,25.6
Чернигов,Украина,0,294522,51.5,31.3
Кривой Рог,Украина,0,654900,47.916667,33.25
Кривой Рог,Украина,0,657100,47.916667,33.25
Винница,Украина,0,372432,49.237222222,28.467222222
Черновцы,Украина,0,266550,48.290833333,25.934444444
Северодонецк,Украина,0,150000,48.95,38.483333333
Алчевск,Украина,0,111360,48.467222222,38.798333333
Каменец-Подольский,Украина,0,100462,48.680555555,26.580555555
Павлоград,Украина,0,106082,48.52,35.87
Павлоград,Украина,0,106683,48.52,35.87
Красный Луч,Украина,0,124000,48.121388888,38.945277777
Бровары,Украина,0,102856,50.511388888,30.790277777
Лондон,Великобритания,1,8787892,51.507222222,-0.1275
Дакка,Бангладеш,1,8906039,23.7,90.366666666
Кагосима,Япония,0,596319,31.596666666,130.557222222
Акита,Япония,0,308052,39.71667,140.1
Акита,Япония,0,308052,39.719722222,140.1025
Касугаи,Япония,0,306936,35.25,136.966666666
Хакодате,Япония,0,260587,41.773333333,140.726111111
Нагасаки,Япония,0,419728,32.783333333,129.866666666
Гифу,Япония,0,404233,35.416666666,136.766666666
Нагано,Япония,0,372342,36.648611111,138.192777777
Аомори,Япония,0,281130,40.822222222,140.7475
Нара,Япония,0,356992,34.683333333,135.783333333
Наха,Япония,0,317950,26.212222222,127.678888888
Печ,Венгрия,0,144675,46.083333333,18.216666666
Дебрецен,Венгрия,0,201981,47.53,21.639166666
Сегед,Венгрия,0,161137,46.25,20.166666666
Мишкольц,Венгрия,0,157177,48.1044444,20.7897222
Дьёр,Венгрия,0,129301,47.684166666,17.634444444
Ньиредьхаза,Венгрия,0,117689,47.95,21.716666666
Кечкемет,Венгрия,0,110813,46.9074,19.6917
Розвилл,Соединённые Штаты Америки,0,104655,38.7525,-121.289444444
Ориндж,Соединённые Штаты Америки,0,136416,33.803055555,-117.8325
Корона,Соединённые Штаты Америки,0,160000,33.866666666,-117.566666666
Ланкастер,Соединённые Штаты Америки,0,156633,34.686944444,-118.154166666
Норуолк,Соединённые Штаты Америки,0,105549,33.906944444,-118.083333333
Морено-Валли,Соединённые Штаты Америки,0,193365,33.943055555,-117.228333333
Фуллертон,Соединённые Штаты Америки,0,135161,33.88,-117.928611111
Уэст-Ковина,Соединённые Штаты Америки,0,106098,34.056666666,-117.918611111
Викторвилл,Соединённые Штаты Америки,0,115903,34.536111111,-117.288333333
Антиок,Соединённые Штаты Америки,0,102372,38.005,-121.805833333
Ранчо-Кукамонга,Соединённые Штаты Америки,0,165269,34.123333333,-117.579444444
Висейлия,Соединённые Штаты Америки,0,130753,36.317222222,-119.331944444
Ричмонд,Соединённые Штаты Америки,0,103701,37.935833333,-122.347777777
Тайлер,Соединённые Штаты Америки,0,107405,32.35,-95.3
Коста-Меса,Соединённые Штаты Америки,0,109960,33.67,-117.91
Мюнхен,Германия,0,1464301,48.137194444,11.5755
Франкфурт-на-Майне,Германия,0,736414,50.113611111,8.679722222
Экибастуз,Казахстан,0,159760,51.729777777,75.326583333
Термез,Узбекистан,0,136200,37.224166666,67.278333333
Термез,Узбекистан,0,140404,37.224166666,67.278333333
Наманган,Узбекистан,0,408500,40.995277777,71.6725
Пемба,Мозамбик,0,141316,-12.966666666,40.55
Манзини,Свазиленд,0,110508,-26.483333333,31.366666666
Сайтама,Япония,0,1263979,35.861666666,139.645277777
Сайтама,Япония,0,1290029,35.861666666,139.645277777
Кавасаки,Япония,0,1509887,35.516666666,139.7
Тиба,Япония,0,975669,35.6,140.1
Тиба,Япония,0,975669,35.6,140.11667
Сидзуока,Япония,0,696291,34.975555555,138.3825
Ниигата,Япония,0,801298,37.916111111,139.019722222
Хамамацу,Япония,0,793904,34.716666666,137.733333333
Китакюсю,Япония,0,950646,33.85181,130.85034
Китакюсю,Япония,0,950646,33.883333333,130.883333333
Сакаи,Япония,0,834267,34.566666666,135.483333333
Кумамото,Япония,0,738407,32.8,130.7
Окаяма,Япония,0,721294,34.65,133.916666666
Сагамихара,Япония,0,722334,35.566666666,139.366666666
Шубра-Эль-Хейма,Египет,0,1025569,30.128611111,31.242222222
Несауалькойотль,Мексика,0,1039867,19.4,-98.988888888
Кумаси,Гана,0,2069350,6.683333333,-1.616666666
Цюаньчжоу,Китайская Народная Республика,0,6480000,24.89744,118.59479
Цюаньчжоу,Китайская Народная Республика,0,6480000,24.91389,118.58583
Сямынь,Китайская Народная Республика,0,3531347,24.6,118.733333333
Ланьчжоу,Китайская Народная Республика,0,3616163,36.06171,103.83177
Хэфэй,Китайская Народная Республика,0,7457027,31.863611111,117.279444444
Кампинас,Бразилия,0,1164098,-22.900913888,-47.057294444
Гуарульюс,Бразилия,0,1324781,-23.466666666,-46.533333333
Шахрисабз,Узбекистан,0,100300,39.05,66.833333333
Варанаси,Индия,0,1198491,25.306944444,83.006111111
Бхопал,Индия,0,1883381,23.25,77.416666666
Пимпри-Чинчвад,Индия,0,1729320,18.627777777,73.813055555
Аллахабад,Индия,0,5954391,25.45,81.85
Мератх,Индия,0,1305429,28.99,77.7
Газиабад,Индия,0,2381452,28.666666666,77.416666666
Санта-Крус-де-ла-Сьерра,Боливия,0,1453549,-17.789166666,-63.1975
Санта-Крус-де-ла-Сьерра,Боливия,0,1453549,-17.789166666,-63.1975
Тебриз,Иран,0,1494998,38.083333333,46.283333333
Мешхед,Иран,0,3001184,36.306944444,59.604166666
Ахваз,Иран,0,1112021,31.320277777,48.669166666
Кум,Иран,0,1292283,34.646111111,50.878888888
Сулеймания,Ирак,0,656100,35.55,45.433333333
Фейсалабад,Пакистан,0,2880675,31.418,73.079
Фейсалабад,Пакистан,0,3203846,31.418,73.079
Гуджранвала,Пакистан,0,1569090,32.15,74.183333333
Пешавар,Пакистан,0,1439205,34.0,71.5
Джидда,Саудовская Аравия,0,3400000,21.542777777,39.172777777
Хайфон,Вьетнам,0,2103500,20.8,106.666666666
Лубумбаши,Демократическая Республика Конго,0,1786397,-11.669722222,27.458055555
Омдурман,Судан,0,2395159,15.683517,32.462887
Хай-Пойнт,Соединённые Штаты Америки,0,104371,35.970555555,-79.9975
Лейкленд,Соединённые Штаты Америки,0,100710,28.041111111,-81.958888888
Карши,Узбекистан,0,108225,38.866666666,65.8
Карши,Узбекистан,0,157119,38.866666666,65.8
Карши,Узбекистан,0,212200,38.866666666,65.8
Карши,Узбекистан,0,254600,38.866666666,65.8
Бхиванди,Индия,0,1125898,19.3,73.066666666
Монтего-Бей,Ямайка,0,110115,18.466666666,-77.916666666
Портмор,Ямайка,0,170000,17.966666666,-76.866666666
Мериван,Иран,0,110464,35.526944444,46.176111111
Месджеде-Солейман,Иран,0,100497,31.933333333,49.3
Сиалкот,Пакистан,0,920000,32.5,74.533333333
Табора,Танзания,0,127880,-5.016666666,32.8
Муфулира,Замбия,0,122336,-12.554580555,28.260419444
Шимойо,Мозамбик,0,238976,-19.116666666,33.45
Кенема,Сьерра-Леоне,0,188463,7.883333333,-11.183333333
Фейетвилл,Соединённые Штаты Америки,0,204408,35.066666666,-78.9175
Дейли-Сити,Соединённые Штаты Америки,0,101123,37.686388888,-122.468333333
Пемброк-Пайнс,Соединённые Штаты Америки,0,154750,26.0125,-80.313611111
Эскондидо,Соединённые Штаты Америки,0,143911,33.124722,-117.080833
Город им. 6 Октября,Египет,0,500000,29.936111111,30.926944444
Кафр-эд-Даввар,Египет,0,262748,31.141666666,30.127222222
Кена,Египет,0,201191,26.166666666,32.716666666
Банха,Египет,0,157701,30.462777777,31.179722222
Мит-Гамр,Египет,0,121039,30.719166666,31.262777777
Ахмим,Египет,0,101509,26.564166666,31.746111111
Мэкэле,Эфиопия,0,323700,13.483333333,39.466666666
Пирасикаба,Бразилия,0,391449,-22.725277777,-47.649166666
Итакуакесетуба,Бразилия,0,352801,-23.486388888,-46.348611111
Мауа,Бразилия,0,453286,-23.667777777,-46.460833333
Вила-Велья,Бразилия,0,472762,-20.336388888,-40.293611111
Пуа,Бразилия,0,113793,-23.528611111,-46.345
Лонсестон,Австралия,0,106153,-41.444444444,147.137777777
Кота,Индия,0,1001694,25.18,75.83
Кота,Индия,0,1001694,25.3,76.383333333
Морадабад,Индия,0,887871,28.833333333,78.783333333
Райпур,Индия,0,1010087,21.2379468,81.6336833
Маракай,Венесуэла,0,955362,10.246944444,-67.595833333
Кесальтенанго,Гватемала,0,500000,14.833333333,-91.516666666
Секкез,Иран,0,131349,36.249722222,46.273333333
Эль-Амара,Ирак,0,511500,31.833333333,47.15
Худжанд,Таджикистан,0,172700,40.283333333,69.616666666
Читтагонг,Бангладеш,0,2581643,22.316666666,91.816666666
Сегу,Мали,0,133501,13.45,-6.266666666
Дахла,Марокко,0,106277,23.716666666,-15.95
Дахла,Западная Сахара,0,106277,23.716666666,-15.95
Гуэлф,Канада,0,131794,43.55,-80.25
Канадзава,Япония,0,465735,36.566666666,136.65
Хатинохе,Япония,0,227090,40.512222222,141.488333333
Оита,Япония,0,478537,33.233333333,131.606666666
Мацуяма,Япония,0,510809,33.83916,132.76574
Мацуяма,Япония,0,510809,33.833333333,132.766666666
Мориока,Япония,0,294267,39.683333333,141.15
Коти,Япония,0,331843,33.566666666,133.533333333
Йокосука,Япония,0,397736,35.25,139.666666666
Уцуномия,Япония,0,519025,36.55,139.883333333
Такамацу,Япония,0,418122,34.35,134.05
Асахикава,Япония,0,338879,43.766666666,142.366666666
Вакаяма,Япония,0,360000,34.233333333,135.166666666
Тоёта,Япония,0,425738,35.083333333,137.156666666
Маэбаси,Япония,0,334299,36.383333333,139.066666666
Оцу,Япония,0,340544,35.016666666,135.85
Симоносеки,Япония,0,260661,33.95,130.933333333
Тояма,Япония,0,417523,36.7,137.22
Миядзаки,Япония,0,398360,31.916666666,131.416666666
Амагасаки,Япония,0,451000,34.71667,135.41667
Амагасаки,Япония,0,451000,34.733333333,135.4
Окадзаки,Япония,0,385221,34.95,137.166666666
Нисиномия,Япония,0,488398,34.733333333,135.333333333
Хигасиосака,Япония,0,498099,34.679444444,135.600833333
Корияма,Япония,0,332824,37.4,140.383333333
Хираката,Япония,0,402005,34.816666666,135.65
Фунабаси,Япония,0,633263,35.694722222,139.9825
Иваки,Япония,0,343618,37.033333333,140.883333333
Кавагоэ,Япония,0,353321,35.933333333,139.483333333
Касива,Япония,0,422385,35.854444444,139.968888888
Куруме,Япония,0,304595,33.316666666,130.516666666
Такацуки,Япония,0,350145,34.85,135.616666666
Тоёхаси,Япония,0,373811,34.766666666,137.383333333
Такасаки,Япония,0,369149,36.316666666,139.0
Тоёнака,Япония,0,397490,34.783333333,135.466666666
Курасики,Япония,0,477181,34.585,133.771944444
Уоррен,Соединённые Штаты Америки,0,134056,42.491944444,-83.023888888
Элджин,Соединённые Штаты Америки,0,110145,42.039444444,-88.288611111
Оверленд-Парк,Соединённые Штаты Америки,0,173372,38.940072222,-94.680697222
Мерфрисборо,Соединённые Штаты Америки,0,108755,35.846143,-86.392078
Коацакоалькос,Мексика,0,319187,18.135833333,-94.463333333
Франка,Бразилия,0,342112,-20.538888888,-47.400833333
Аякучо,Перу,0,180766,-13.163055555,-74.224444444
Уануко,Перу,0,120000,-9.929444444,-76.239722222
Илам,Иран,0,172213,33.633333333,46.433333333
Хорремабад,Иран,0,348216,33.466666666,48.35
Мзузу,Малави,0,150100,-11.45,34.033333333
Огбомошо,Нигерия,0,1032000,8.133333333,4.25
Лос-Анджелес,Соединённые Штаты Америки,0,3976322,34.05,-118.25
Сан-Хосе,Соединённые Штаты Америки,0,1025350,37.304166666,-121.872777777
Колледж-Стейшен,Соединённые Штаты Америки,0,100050,30.601388888,-96.314444444
Мачакос,Кения,0,114109,-1.516666666,37.266666666
Николаев,Украина,0,487996,46.966666666,32.0
Николаев,Украина,0,498748,46.966666666,32.0
Харьков,Украина,0,1445098,50.0,36.229166666
Донецк,Украина,0,929063,48.008888888,37.804166666
Днепр,Украина,0,983836,48.45,34.983333333
Хмельницкий,Украина,0,290100,49.42,27.0
Винница,Украина,0,372432,49.237222222,28.467222222
Кропивницкий,Украина,0,232052,48.510277777,32.266666666
Хульяка,Перу,0,225146,-15.490833333,-70.126944444
Барамула,Индия,0,167986,34.2,74.34
Баринас,Венесуэла,0,271535,8.633333333,-70.216666666
Мао,Доминиканская Республика,0,106818,19.56666667,-71.08333333
Эд-Дивания,Ирак,0,391600,31.989166666,44.924722222
Моламьяйн,Мьянма,0,500000,16.484722222,97.625833333
Ларкана,Пакистан,0,435817,27.56,68.226388888
Кассала,Судан,0,419030,15.45,36.4
Энсенада,Мексика,0,486639,31.857777777,-116.605833333
Эмбу,Бразилия,0,261781,-23.648888888,-46.851944444
Диадема,Бразилия,0,412428,-23.685833333,-46.622777777
Жакареи,Бразилия,0,226539,-23.305,-45.965833333
Франку-да-Роша,Бразилия,0,145755,-23.328611111,-46.724444444
Ратлам,Индия,0,273892,23.316666666,75.066666666
Мохаммедия,Марокко,0,208612,33.683333333,-7.383333333
Грейтер-Садбери,Канада,0,161531,46.49,-81.01
Суррей,Канада,0,517887,49.1833,-122.85
Сентенниал,Соединённые Штаты Америки,0,100377,39.596388888,-104.843888888
Эверетт,Соединённые Штаты Америки,0,103019,47.963333333,-122.200555555
Сохаг,Египет,0,193931,26.560555555,31.691666666
Бильбейс,Египет,0,141285,30.416666666,31.566666666
Маллави,Египет,0,139929,27.730555555,30.8425
Бени-Суэйф,Египет,0,193048,29.066666666,31.083333333
Дисук,Египет,0,135336,31.142222222,30.645
Уруапан,Мексика,0,334749,19.421111111,-102.063055555
Уруапан,Мексика,0,334749,19.41362,-102.05278
Джимма,Эфиопия,0,177900,7.666666666,36.833333333
Убераба,Бразилия,0,295988,-19.747777777,-47.931944444
Мозырь,Белоруссия,0,112187,52.05,29.233333333
Барселона,Венесуэла,0,326460,10.133333333,-64.683333333
Ясудж,Иран,0,108505,30.666666666,51.583333333
Шехре-Корд,Иран,0,159775,32.325555555,50.864444444
Дума,Сирия,0,123494,33.572222222,36.401944444
Гверу,Зимбабве,0,141260,-19.458,29.82
Мутаре,Зимбабве,0,188243,-18.972777777,32.669444444
Сан-Франциско,Соединённые Штаты Америки,0,805235,37.766667,-122.433333
Денвер,Соединённые Штаты Америки,0,649495,39.739166666,-104.984722222
Нашвилл,Соединённые Штаты Америки,0,668347,36.165,-86.783888888
Анкоридж,Соединённые Штаты Америки,0,300950,61.218333333,-149.899166666
Мейкон,Соединённые Штаты Америки,0,153691,32.83583,-83.64639
Гонолулу,Соединённые Штаты Америки,0,983429,21.466666666,-157.966666666
Бибб,Соединённые Штаты Америки,0,154721,32.8,-83.7
Дувал,Соединённые Штаты Америки,0,885855,30.33,-81.65
Хайльбронн,Германия,0,123771,49.15,9.216666666
Карлсруэ,Германия,0,309999,49.016666666,8.4
Мангейм,Германия,0,304781,49.483611111,8.463055555
Фрайбург-им-Брайсгау,Германия,0,227590,47.994722222,7.849722222
Гейдельберг,Германия,0,159914,49.412222222,8.71
Ульм,Германия,0,123953,48.4,9.983333333
Пфорцхайм,Германия,0,123493,48.9,8.716666666
Джизак,Узбекистан,0,106087,40.116666666,67.85
Джизак,Узбекистан,0,163200,40.116666666,67.85
Йонъин,Республика Корея,0,971327,37.236111111,127.201111111
Таза,Марокко,0,148456,34.214442,-4.008789
Токио,Япония,1,9272565,35.683889,139.774444
Эль-Монте,Соединённые Штаты Америки,0,113475,34.073333333,-118.0275
Матагальпа,Никарагуа,0,150000,12.916666666,-85.916666666
Манзини,Свазиленд,0,110508,-26.483333333,31.366666666
Фукуяма,Япония,0,463618,34.485833333,133.3625
Идлиб,Сирия,0,165000,35.933333333,36.633333333
Картахена,Колумбия,0,1036412,10.423611111,-75.525277777
Тете,Мозамбик,0,152909,-16.166666666,33.6
Марилия,Бразилия,0,232006,-22.213888888,-49.945833333
Сузану,Бразилия,0,285280,-23.542777777,-46.310833333
Сока,Япония,0,249455,35.825555555,139.805555555
Кисивада,Япония,0,192637,34.460277777,135.371111111
Пуэбло,Соединённые Штаты Америки,0,106595,38.266944444,-104.620277777
Сан-Педро-де-Макорис,Доминиканская Республика,0,217141,18.457222,-69.306111
Сан-Франсиско-де-Макорис,Доминиканская Республика,0,174879,19.3,-70.25
Корал-Спрингс,Соединённые Штаты Америки,0,121096,26.270555555,-80.259166666
Сульяна,Перу,0,162434,-4.9,-80.7
Чимботе,Перу,0,334568,-9.074544444,-78.593572222
Сьюдад-Гуаяна,Венесуэла,0,1200000,8.359616666,-62.651652777
Майами-Гарденс,Соединённые Штаты Америки,0,107167,25.942122222,-80.269919444
Кабу-Фриу,Бразилия,0,186227,-22.878888888,-42.018888888
Уараль,Перу,0,790011,-11.5,-77.216666666
Уараль,Перу,0,790011,-11.50076008,-77.20906067
Уараль,Перу,0,790011,-11.5,-77.2
Казерун,Иран,0,143869,29.616666666,51.65
Порт-Сент-Луси,Соединённые Штаты Америки,0,164603,27.275833333,-80.355
Элк-Гров,Соединённые Штаты Америки,0,153015,38.438333333,-121.381944444
Котия,Бразилия,0,229548,-23.603888888,-46.918888888
Пуэрто-Кортес,Гондурас,0,200000,15.883333333,-87.95
Сан-Мигель,Сальвадор,0,218410,13.483333333,-88.183333333
Негомбо,Шри-Ланка,0,150364,7.211111111,79.838611111
Негомбо,Шри-Ланка,0,150364,7.211111111,79.838611111
Лишинга,Мозамбик,0,142253,-13.3,35.245555555
Маради,Нигер,0,206414,13.5,7.1
Берн,Швейцария,1,141833,46.950833333,7.438611111
Милуоки,Соединённые Штаты Америки,0,600155,43.05,-87.95
Мирамар,Соединённые Штаты Америки,0,128729,25.978888888,-80.2825
Женева,Швейцария,0,198899,46.2,6.15
Цюрих,Швейцария,0,415682,47.378611111,8.54
Базель,Швейцария,0,175940,47.550555555,7.591111111
Лозанна,Швейцария,0,144426,46.533333333,6.633333333
Матаморос,Мексика,0,920367,25.879722222,-97.504166666
Тультитлан-де-Марьяно-Эскобедо,Мексика,0,520557,19.645,-99.169444444
Тультитлан-де-Марьяно-Эскобедо,Мексика,0,520557,19.64756,-99.16796
Асэлла,Эфиопия,0,110088,7.95,39.116666666
Киль,Германия,0,247236,54.325277777,10.140555555
Ганновер,Германия,0,532864,52.374444444,9.738611111
Дюссельдорф,Германия,0,613230,51.216666666,6.816666666
Майнц,Германия,0,213528,50.0,8.266666666
Висбаден,Германия,0,277619,50.082083333,8.241361111
Саарбрюккен,Германия,0,179709,49.2354,6.98165
Саарбрюккен,Германия,0,179709,49.233333333,7.0
Мюнхен,Германия,0,1464301,48.137194444,11.5755
Эрфурт,Германия,0,211113,50.978055555,11.029166666
Дрезден,Германия,0,547172,51.033333333,13.733333333
Магдебург,Германия,0,238136,52.133333333,11.616666666
Фрайбург-им-Брайсгау,Германия,0,227590,47.994722222,7.849722222
Баттамбанг,Камбоджа,0,130000,13.1,103.2
Ситуэ,Мьянма,0,181000,20.144444444,92.896944444
Барисал,Бангладеш,0,230000,22.7,90.366666666
Варшава,Польша,1,1753977,52.216666666,21.033333333
Лондон,Великобритания,1,8787892,51.507222222,-0.1275
Москва,Россия,1,12500123,55.755833333,37.617777777
Берлин,Германия,1,3574830,52.516666666,13.383333333
Ташкент,Узбекистан,1,2424100,41.3,69.266666666
Акаси,Япония,0,295908,34.643055555,134.9975
Йоккаити,Япония,0,310366,34.966666666,136.616666666
Кумагая,Япония,0,195903,36.147222222,139.388611111
Токородзава,Япония,0,341091,35.799444444,139.468888888
Тоттори,Япония,0,191601,35.501111111,134.235
Фукуи,Япония,0,264034,36.064166666,136.219722222
Фукуи,Япония,0,264034,36.06443,136.22257
Кофу,Япония,0,189433,35.666666666,138.566666666
Мито,Япония,0,268750,36.366666666,140.466666666
Мито,Япония,0,269925,36.366666666,140.466666666
Ямагата,Япония,0,251614,38.25,140.333333333
Мацуэ,Япония,0,204890,35.468055555,133.048611111
Мацумото,Япония,0,240956,36.238055555,137.971944444
Куре,Япония,0,223503,34.249166666,132.565833333
Нумадзу,Япония,0,191098,35.095555555,138.863611111
Одавара,Япония,0,191325,35.264722222,139.152222222
Итиномия,Япония,0,380672,35.35,136.766666666
Цукуба,Япония,0,234455,36.033333333,140.066666666
Сасебо,Япония,0,250636,33.18,129.715555555
Исэсаки,Япония,0,210194,36.316666666,139.2
Фудзи,Япония,0,245821,35.161388888,138.676388888
Касукабе,Япония,0,231100,35.975277777,139.7525
Ота,Япония,0,221637,36.291666666,139.375833333
Ямато,Япония,0,235357,35.4875,139.458055555
Кавагути,Япония,0,587008,35.807777777,139.724166666
Неягава,Япония,0,233883,34.766111111,135.628055555
Ацуги,Япония,0,225194,35.433333333,139.366666666
Ацуги,Япония,0,225194,35.44272,139.36931
Яо,Япония,0,267581,34.626944444,135.600833333
Косигая,Япония,0,342486,35.891111111,139.790833333
Хирацука,Япония,0,257962,35.323055555,139.342222222
Ибараки,Япония,0,282012,34.816388888,135.568611111
Нагаока,Япония,0,270080,37.433333333,138.833333333
Дзёэцу,Япония,0,192450,37.15,138.233333333
Тигасаки,Япония,0,241532,35.333888888,139.404722222
Суйта,Япония,0,379246,34.766666666,135.516666666
Нью-Йорк,Соединённые Штаты Америки,0,8537673,40.67,-73.94
Лос-Анджелес,Соединённые Штаты Америки,0,3976322,34.05,-118.25
Алегзандрия,Соединённые Штаты Америки,0,148892,38.804722222,-77.047222222
Балтимор,Соединённые Штаты Америки,0,622104,39.286388888,-76.615
Сент-Луис,Соединённые Штаты Америки,0,318416,38.616666666,-90.2
Ричмонд,Соединённые Штаты Америки,0,214114,37.533333333,-77.466666666
Чесапик,Соединённые Штаты Америки,0,230571,36.767398,-76.287405
Норфолк,Соединённые Штаты Америки,0,246139,36.854627777,-76.274394444
Вирджиния-Бич,Соединённые Штаты Америки,0,448479,36.8506,-75.9779
Ньюпорт-Ньюс,Соединённые Штаты Америки,0,182020,37.070833333,-76.484444444
Хэмптон,Соединённые Штаты Америки,0,136699,37.034946,-76.360126
Стамбул,Турция,0,14657434,41.01,28.960277777
Сан-Паулу,Бразилия,0,12106920,-23.550394444,-46.633947222
Санкт-Петербург,Россия,0,5281579,59.95,30.316666666
Новосибирск,Россия,0,1602915,55.033333333,82.916666666
Нижний Новгород,Россия,0,1264075,56.326944444,44.0075
Омск,Россия,0,1178391,54.966666666,73.383333333
Казань,Россия,0,1231878,55.790833333,49.114444444
Челябинск,Россия,0,1198858,55.15,61.4
Ростов-на-Дону,Россия,0,1125299,47.233333333,39.716666666
Уфа,Россия,0,1130000,54.733333333,55.966666666
Волгоград,Россия,0,1015586,48.7,44.483333333
Пермь,Россия,0,1048005,58.013888888,56.248888888
Кёльн,Германия,0,1075935,50.942222222,6.957777777
Кейп-Корал (Флорида),Соединённые Штаты Америки,0,154305,26.633333,-81.983333
Баруэри,Бразилия,0,262275,-23.511111111,-46.876388888
Улхаснагар,Индия,0,506098,19.216666666,73.15
Изе,Иран,0,119399,31.83333333,49.75
Изе,Иран,0,119399,31.837222222,49.869444444
Кабинда,Ангола,0,377931,-5.55,12.2
Чингола,Замбия,0,147448,-12.544722222,27.870833333
Сувон,Республика Корея,0,1207032,37.284166666,127.019166666
Пучхон,Республика Корея,0,867678,37.498888888,126.783055555
Соннам,Республика Корея,0,948757,37.438611111,127.137777777
Буффало,Соединённые Штаты Америки,0,258959,42.904722222,-78.849444444
Мадисон,Соединённые Штаты Америки,0,236901,43.074722222,-89.384444444
Грин-Бей,Соединённые Штаты Америки,0,104057,44.513333333,-88.015833333
Сиракьюс,Соединённые Штаты Америки,0,144669,43.046899,-76.144423
Йонкерс,Соединённые Штаты Америки,0,195976,40.941388888,-73.864444444
Гирга,Египет,0,102597,26.341944444,31.889444444
Эс-Самава,Ирак,0,215000,31.316666666,45.283333333
Саваннакхет,Лаос,0,124000,16.55,104.75
Уарас,Перу,0,131377,-9.533333333,-77.533333333
Хинотега,Никарагуа,0,131106,13.091511111,-86.003213888
Мехико,Мексика,1,8918653,19.419444444,-99.145555555
Пекин,Китайская Народная Республика,1,21710000,39.905,116.391388888
Тбилиси,Грузия,1,1118035,41.716666666,44.783333333
Буэнос-Айрес,Аргентина,1,2890151,-34.599722222,-58.381944444
Манила,Филиппины,1,1780148,14.583333333,121.0
Барселона,Испания,0,1620809,41.3825,2.176944444
Сан-Антонио,Соединённые Штаты Америки,0,1436697,29.428611111,-98.493333333
Филадельфия,Соединённые Штаты Америки,0,1560297,39.953055555,-75.163333333
Президенти-Пруденти,Бразилия,0,222192,-22.125833333,-51.388888888
Сантана-ди-Парнаиба,Бразилия,0,126574,-23.443888888,-46.917777777
Гамбург,Германия,0,1810438,53.55,10.0
Ахмадабад,Индия,0,7645000,23.03,72.58
Калькутта,Индия,0,4496694,22.541111111,88.337777777
Ченнаи,Индия,0,10265000,13.09,80.27
Дели,Индия,0,26495000,28.666666666,77.216666666
Бангалор,Индия,0,10535000,12.969907,77.597963
Сахивал,Пакистан,0,247706,31.116666666,73.183333333
Аджман,Объединённые Арабские Эмираты,0,238119,25.399444444,55.479722222
Кэрэн,Эритрея,0,146500,15.783333333,38.45
Машише,Мозамбик,0,108824,-23.8667,35.2
Машише,Мозамбик,0,108824,-23.859722222,35.347222222
Барбасена,Бразилия,0,126284,-21.225833333,-43.773888888
Бид (город),Индия,0,146709,18.983333333,75.766666666
Бабаойо,Эквадор,0,140534,-1.816666666,-79.516666666
Пегу,Мьянма,0,284179,17.343333333,96.498055555
Дэссе,Эфиопия,0,187900,11.133333333,39.633333333
Джиджига,Эфиопия,0,159300,9.35,42.8
Ауаса,Эфиопия,0,300100,7.05,38.466666666
Навои,Узбекистан,0,134100,40.083333333,65.383333333
Бхагалпур,Индия,0,410210,25.25,87.016666666
Вена,Австрия,1,1840573,48.20833,16.373064
Афины,Греция,1,664046,37.979444444,23.716111111
Анкара,Турция,1,5270575,39.866666666,32.866666666
Найроби,Кения,1,5545000,-1.283333333,36.816666666
Аддис-Абеба,Эфиопия,1,3384569,9.027222222,38.736944444
Аккра,Гана,1,2291352,5.6037,-0.187
Бразилиа,Бразилия,1,2789761,-15.793888888,-47.882777777
Бухарест,Румыния,1,1883425,44.4,26.083333333
Баку,Азербайджан,1,2181800,40.366655555,49.835183333
Джакарта,Индонезия,1,9769000,-6.166666666,106.8
Пхеньян,Корейская Народно-Демократическая Республика,1,2863000,39.03,125.73
Каракас,Венесуэла,1,1943901,10.5,-66.933333333
Гватемала,Гватемала,1,2110100,14.622777777,-90.531388888
Тегусигальпа,Гондурас,1,1126534,14.094166666,-87.206666666
Тегеран,Иран,1,8846782,35.7,51.416666666
Сана,Йемен,1,2957000,15.35,44.2
Амман,Иордания,1,4995000,31.95,35.933333333
Манагуа,Никарагуа,1,1028808,12.15,-86.266666666
Куала-Лумпур,Малайзия,1,7590000,3.159722222,101.7
Нейпьидо,Мьянма,1,1160242,19.80278,96.15833
Катманду,Непал,1,975453,27.716666666,85.366666666
Дамаск,Сирия,1,1754000,33.513055555,36.291944444
Бангкок,Таиланд,1,5696409,13.75,100.516666666
Сеул,Республика Корея,1,9857426,37.583333333,127.0
Тунис,Тунис,1,1200000,36.800833333,10.18
Триполи,Ливия,1,1126000,32.9,13.183333333
Антананариву,Мадагаскар,1,2610000,-18.938611111,47.521388888
Кампала,Уганда,1,1659600,0.313611111,32.581111111
Могадишо,Сомали,1,2120000,2.040833333,45.3425
Хартум,Судан,1,5345000,15.60308,32.52654
Киото,Япония,0,1466937,35.011666666,135.768055555
Хиросима,Япония,0,1198555,34.385277777,132.455277777
Осака,Япония,0,2713157,34.693611111,135.501944444
Саппоро,Япония,0,1951523,43.05,141.35
Сан-Диего,Соединённые Штаты Америки,0,1394928,32.715,-117.1625
Хьюстон,Соединённые Штаты Америки,0,2195914,29.762777777,-95.383055555
Финикс,Соединённые Штаты Америки,0,1469471,33.528333333,-112.076388888
Даллас,Соединённые Штаты Америки,0,1197816,32.7825,-96.7975
Салоники,Греция,0,315196,40.633333333,22.95
Измир,Турция,0,4168415,38.433333333,27.15
Экатепек-де-Морелос,Мексика,0,1655015,19.609722222,-99.06
